[
  {
    "name": "＆LOVINA (アンドラビナ)",
    "category": "transport",
    "lat": 40.828884,
    "lng": 140.734866,
    "amenities": "授乳室、おむつ交換スペース、ベビーカーの貸し出し、粉ミルク用のお湯の提供、店内全面禁煙",
    "detail": "2024年4月にオープンした青森駅直結の施設です。4階に最新の個室授乳室、おむつ替え台、調乳設備を完備したベビーケアルームがあります。3階ではベビーカーの貸出も行っており、駅利用時の動線が非常にスムーズです。"
  },
  {
    "name": "つどいの広場 「さんぽぽ」 (アウガ2階)",
    "category": "playground",
    "lat": 40.8271218,
    "lng": 140.735740,
    "amenities": "授乳室、おむつ交換スペース、粉ミルク用のお湯の提供、プレイルーム・スペース、トイレ内ベビーチェア、店内全面禁煙",
    "detail": "新町1-3-7。0歳から3歳児と保護者が無料で利用できる室内遊び場です。授乳室での搾乳が可能で、体重計も備えています。市役所手続き中の1時間一時預かり予約も受け付けています。"
  },
  {
    "name": "青森駅ビル・ラビナ (LOVINA)",
    "category": "shopping",
    "lat": 40.827849,
    "lng": 140.734079,
    "amenities": "授乳室、おむつ交換スペース、ベビーカーの貸し出し、粉ミルク用のお湯の提供、トイレ内ベビーチェア、店内全面禁煙",
    "detail": "5階に清潔な授乳室（鍵付き）とおむつ交換台があります。駅利用時や買い物の合間に立ち寄りやすく、利用者から高い評価を得ている拠点です。"
  },
  {
    "name": "THREE (スリー)",
    "category": "shopping",
    "lat": 40.8260421,
    "lng": 140.737626,
    "amenities": "授乳室、おむつ交換スペース、ベビーカーの貸し出し、トイレ内ベビーチェア、店内全面禁煙",
    "detail": "2階の女性用化粧室内に授乳室とおむつ替え台があります。個室はカーテン仕切りで椅子があり清潔です。4階多目的トイレ内にもおむつ台が設置されています。"
  },
  {
    "name": "カクヒログループ スーパーアリーナ (市総合体育館)",
    "category": "sports",
    "lat": 40.81403175,
    "lng": 140.7458304,
    "amenities": "授乳室、おむつ交換スペース、粉ミルク用のお湯の提供、プレイルーム・スペース、トイレ内ベビーチェア、店内全面禁煙",
    "detail": "浦町字橋本335-17。1階に最新の授乳室があり、ダイナミックなネット遊具やクライミングウォールを備えた有料のキッズルームが併設されています。"
  },
  {
    "name": "アピオあおもり (青森県子ども家庭支援センター)",
    "category": "public",
    "lat": 40.81695806,
    "lng": 140.74779617,
    "amenities": "授乳室、おむつ交換スペース、粉ミルク用のお湯の提供、プレイルーム・スペース、トイレ内ベビーチェア、店内全面禁煙",
    "detail": "中央3-17-1。未就学児が無料で遊べるプレイルームや、授乳室、自由に飲食できるスペースがあり、県内の子育て情報の拠点となっています。"
  },
  {
    "name": "青森県立美術館",
    "category": "museum",
    "lat": 40.8074814,
    "lng": 140.7008167,
    "amenities": "授乳室、おむつ交換スペース、ベビーカーの貸し出し、トイレ内ベビーチェア、店内全面禁煙",
    "detail": "安田字近野185。1階と地下2階多目的トイレにおむつ替え台があり、キッズルームでは良質な木のおもちゃ等で遊べます。受付でベビーカー貸出も可能です。"
  },
  {
    "name": "青森県営浅虫水族館",
    "category": "museum",
    "lat": 40.8975810,
    "lng": 140.8627563,
    "amenities": "授乳室、おむつ交換スペース、粉ミルク用のお湯の提供、トイレ内ベビーチェア、店内全面禁煙",
    "detail": "2階に授乳室とおむつ替え台、ベビーベッドを設置。休憩ホールにはお弁当を食べられる広いお座敷スペースがあり、家族でのんびり過ごせます。"
  },
  {
    "name": "イオン青森店",
    "category": "shopping",
    "lat": 40.80649965,
    "lng": 140.7531719,
    "amenities": "授乳室、おむつ交換スペース、ベビーカーの貸し出し、粉ミルク用のお湯の提供、プレイルーム・スペース、トイレ内ベビーチェア、子供用椅子の貸し出し、店内全面禁煙",
    "detail": "サンロード青森内。2階に授乳室とおむつ替え台を完備しています。大規模商業施設として、ケア設備と遊び場、買い物の動線が統合されています。"
  },
  {
    "name": "ユニバース ラ・セラ 東バイパス店",
    "category": "shopping",
    "lat": 40.827693,
    "lng": 140.799828,
    "amenities": "授乳室、おむつ交換スペース、粉ミルク用のお湯の提供、トイレ内ベビーチェア、店内全面禁煙",
    "detail": "八重田4-2-1。2階に授乳室とおむつ替え台があり、スーパーでの買い物ついでに利用できます。店内通路も広くベビーカー移動に適しています。"
  },
  {
    "name": "シーナシーナ青森",
    "category": "shopping",
    "lat": 40.8008942,
    "lng": 140.749089,
    "amenities": "授乳室、おむつ交換スペース、ベビーカーの貸し出し、粉ミルク用のお湯の提供、プレイルーム・スペース、子供用椅子の貸し出し、店内全面禁煙",
    "detail": "浜田1-14-1。2階に授乳室とおむつ替え台、ベビーベッド、シンクを完備。室内遊び場「ザキッズ」が併設されており、遊びとケアの並立が可能です。"
  },
  {
    "name": "ねぶたの家 ワ・ラッセ",
    "category": "museum",
    "lat": 40.8294868,
    "lng": 140.7354889,
    "amenities": "授乳室、おむつ交換スペース、粉ミルク用のお湯の提供、トイレ内ベビーチェア、店内全面禁煙",
    "detail": "安方1-1-1。2階に専用の授乳室があり、各階の多目的トイレ内におむつ替え台が設置されています。観光の合間の休憩拠点として便利です。"
  },
  {
    "name": "あおもり親子はぐくみプラザ",
    "category": "public",
    "lat": 40.8221145,
    "lng": 140.7803196,
    "amenities": "授乳室、おむつ交換スペース、粉ミルク用のお湯の提供、プレイルーム・スペース、トイレ内ベビーチェア、店内全面禁煙",
    "detail": "佃2-19-13。元気プラザ1階にあり、広い授乳スペース、おむつ替え台、体重計等を完備。親子でゆっくり過ごせる地域支援の中核施設です。"
  },
  {
    "name": "青森市役所本庁舎",
    "category": "public",
    "lat": 40.8229366,
    "lng": 140.7470426,
    "amenities": "授乳室、おむつ交換スペース、粉ミルク用のお湯の提供、店内全面禁煙",
    "detail": "中央1-22-5。1階に個室授乳室とおむつ替え台があり、各種手続きの際も赤ちゃん連れで安心して来庁できます。"
  },
  {
    "name": "JR新青森駅",
    "category": "transport",
    "lat": 40.8282662,
    "lng": 140.6934607,
    "amenities": "授乳室、おむつ交換スペース、粉ミルク用のお湯の提供、トイレ内ベビーチェア、店内全面禁煙",
    "detail": "新幹線改札内待合室に非常に清潔で使いやすい授乳室があります。長距離移動の前後でのケア拠点として大変人気があります。"
  },
  {
    "name": "リンクステーションホール青森 (市文化会館)",
    "category": "public",
    "lat": 40.8243620,
    "lng": 140.756876,
    "amenities": "授乳室、おむつ交換スペース、粉ミルク用のお湯の提供、トイレ内ベビーチェア、店内全面禁煙",
    "detail": "堤町1-4-1。1階におむつ替え台と授乳室が整備されており、イベントや催し物の際も親子で安心して利用できます。"
  },
  {
    "name": "さくら野百貨店青森本店",
    "category": "shopping",
    "lat": 40.8261525,
    "lng": 140.7392045,
    "amenities": "授乳室、おむつ交換スペース、ベビーカーの貸し出し、粉ミルク用のお湯の提供、子供用椅子の貸し出し、店内全面禁煙",
    "detail": "新町1-13-2。5階に授乳室とおむつ替え台があります。給水機や自販機もあり、ミルク作りや大人の水分補給も可能な落ち着いた空間です。"
  },
  {
    "name": "中央 市民センター",
    "category": "public",
    "lat": 40.82082050,
    "lng": 140.760837,
    "amenities": "授乳室、おむつ交換スペース、店内全面禁煙",
    "detail": "松原1-6-15。1階に授乳スペースとおむつ替え台があり、地域のサークル活動時などに活用されています。"
  },
  {
    "name": "西部 市民センター",
    "category": "public",
    "lat": 40.82641444,
    "lng": 140.678081,
    "amenities": "授乳室、おむつ交換スペース、粉ミルク用のお湯の提供、店内全面禁煙",
    "detail": "新城字平岡163-22。3階にケア設備が整っており、地域の子育て世帯の交流拠点となっています。"
  },
  {
    "name": "東部 市民センター",
    "category": "public",
    "lat": 40.8373205,
    "lng": 140.8073076,
    "amenities": "授乳室、おむつ交換スペース、粉ミルク用のお湯の提供、店内全面禁煙",
    "detail": "原別3-8-1。1階に授乳とおむつ替えが可能なスペースがあり、お湯の提供も受けられます。"
  },
  {
    "name": "大野 市民センター",
    "category": "public",
    "lat": 40.8044865,
    "lng": 140.734274,
    "amenities": "授乳室、おむつ交換スペース、粉ミルク用のお湯の提供、店内全面禁煙",
    "detail": "大野字若宮71。1階に設置。周辺の公園遊びの合間などの休憩拠点としても利用可能です。"
  },
  {
    "name": "横内 市民センター",
    "category": "public",
    "lat": 40.7778615,
    "lng": 140.7658879,
    "amenities": "授乳室、おむつ交換スペース、粉ミルク用のお湯の提供、店内全面禁煙",
    "detail": "横内字亀井28-2。2階に設置。地域に密着したサポートを提供しています。"
  },
  {
    "name": "戸山 市民センター",
    "category": "public",
    "lat": 40.7992286,
    "lng": 140.804547,
    "amenities": "授乳室、おむつ交換スペース、粉ミルク用のお湯の提供、店内全面禁煙",
    "detail": "蛍沢4-1-4。1階に授乳室があり、女子トイレ内におむつ台が完備されています。"
  },
  {
    "name": "油川 市民センター",
    "category": "public",
    "lat": 40.852170,
    "lng": 140.683149,
    "amenities": "授乳室、おむつ交換スペース、粉ミルク用のお湯の提供、店内全面禁煙",
    "detail": "羽白字池上197-1。1階多目的トイレ内におむつ替え台があり、お湯の提供も可能です。"
  },
  {
    "name": "古川 市民センター",
    "category": "public",
    "lat": 40.821912,
    "lng": 140.733940,
    "amenities": "授乳室、おむつ交換スペース、店内全面禁煙",
    "detail": "古川3-7-14。3階に「パパママゾーン」としてケアスペースが確保されています。"
  },
  {
    "name": "荒川 市民センター",
    "category": "public",
    "lat": 40.785219,
    "lng": 140.7396065,
    "amenities": "授乳室、おむつ交換スペース、店内全面禁煙",
    "detail": "荒川字柴田129-1。1階にベビーベッド等を備えたケアコーナーがあります。"
  },
  {
    "name": "沖館 市民センター",
    "category": "public",
    "lat": 40.8324491,
    "lng": 140.724264,
    "amenities": "授乳室、おむつ交換スペース、粉ミルク用のお湯の提供、店内全面禁煙",
    "detail": "沖館1-1-11。2階多目的トイレ内におむつ替え台を完備しています。"
  },
  {
    "name": "道の駅なみおか アップルヒル",
    "category": "transport",
    "lat": 40.717596,
    "lng": 140.579605,
    "amenities": "授乳室、おむつ交換スペース、粉ミルク用のお湯の提供、プレイルーム・スペース、店内全面禁煙",
    "detail": "大型遊具や「ふわふわドーム」があり子供に人気です。レストランや産直も充実し、館内で授乳やおむつ替えが可能です。"
  },
  {
    "name": "A-FACTORY (エーファクトリー)",
    "category": "shopping",
    "lat": 40.8300451,
    "lng": 140.734927,
    "amenities": "おむつ交換スペース、ベビーカーの貸し出し、店内全面禁煙",
    "detail": "2階多目的トイレにおむつ替え台があります。1階は通路が広くベビーカーでの移動が容易で、開放的な雰囲気です。"
  },
  {
    "name": "トヨタカローラ青森 佃店",
    "category": "nursing",
    "lat": 40.816697,
    "lng": 140.786521,
    "amenities": "授乳室、おむつ交換スペース、店内全面禁煙",
    "detail": "佃2丁目。一階入口付近に入店しやすい子育てサポート設備を配置しています。ディーラーならではの清潔な環境です。"
  },
  {
    "name": "青森ダイハツモータース 本社／青森石江店",
    "category": "nursing",
    "lat": 40.8248019,
    "lng": 140.7063173,
    "amenities": "授乳室、おむつ交換スペース、店内全面禁煙",
    "detail": "石江。商談スペースの近くにおむつ替え・授乳ブースを設置しており、お子様連れでも気兼ねなく相談ができます。"
  },
  {
    "name": "はるやま青森大野店",
    "category": "shopping",
    "lat": 40.80098940,
    "lng": 140.740820,
    "amenities": "授乳室、おむつ交換スペース、店内全面禁煙",
    "detail": "ビジネスウェア専門店ですが、1階に専用のベビールームを完備しており、お子様連れでの買い物に対応しています。"
  },
  {
    "name": "テックファーマシー沖館",
    "category": "shopping",
    "lat": 40.8349809,
    "lng": 140.725347,
    "amenities": "おむつ交換スペース、店内全面禁煙",
    "detail": "沖館。調剤薬局でありながら、待ち時間にお子様のケアができるよう環境を整えています。"
  },
  {
    "name": "ステーキ宮 青森店",
    "category": "restaurant",
    "lat": 40.809028,
    "lng": 140.754331,
    "amenities": "子供用椅子の貸し出し、子供用食器の貸し出し、店内全面禁煙",
    "detail": "「にこにこ店」特典としてパスポート提示で割引があり、広いソファ席でお子様向けメニューを楽しめます。"
  },
  {
    "name": "ミスタードーナツ 青森観光通りショップ",
    "category": "restaurant",
    "lat": 40.8032567,
    "lng": 140.7565240,
    "amenities": "店内全面禁煙",
    "detail": "にこにこ店特典として、ドーナツやパイを割引価格で購入可能です。親子での休憩に定番のスポットです。"
  },
  {
    "name": "西松屋 ガーラタウン青森店",
    "category": "shopping",
    "lat": 40.8323995,
    "lng": 140.7042806,
    "amenities": "授乳室、おむつ交換スペース、粉ミルク用のお湯の提供、店内全面禁煙",
    "detail": "三好2-3-19。ベビー・キッズ用品の専門店として、おむつ替えや授乳の環境が非常に整っています。通路が広く、ベビーカーのまま入店してゆっくりと買い物を楽しむことができます。"
  },
  {
    "name": "ユニバース 沖館店",
    "category": "shopping",
    "lat": 40.83467753,
    "lng": 140.72600919,
    "amenities": "授乳室、おむつ交換スペース、粉ミルク用のお湯の提供、店内全面禁煙",
    "detail": "沖館4-3-1。店内に清潔な授乳室とおむつ替え台を完備しています。地域密着型のスーパーとして、日常の買い物ついでに赤ちゃんのケアができる拠点です。"
  },
  {
    "name": "ケーズデンキ 青森西店",
    "category": "shopping",
    "lat": 40.8328457,
    "lng": 140.6928421,
    "amenities": "授乳室、おむつ交換スペース、トイレ内ベビーチェア、店内全面禁煙",
    "detail": "三好2-1-1。2階フロアに授乳室とおむつ替えシートを完備したバリアフリートイレがあります。家電選びの長い待ち時間も安心して過ごせます。"
  },
  {
    "name": "いとく 浪岡店",
    "category": "shopping",
    "lat": 40.7085398,
    "lng": 140.587883,
    "amenities": "授乳室、おむつ交換スペース、粉ミルク用のお湯の提供、店内全面禁煙",
    "detail": "浪岡。地域の子育て世帯を支える「ほのぼの店」です。授乳スペースやお湯の提供など、移動の合間に立ち寄れる貴重なケア拠点となっています。"
  },
  {
    "name": "お好み焼道とん堀 青森浜田店",
    "category": "restaurant",
    "lat": 40.8085696,
    "lng": 140.79195769,
    "amenities": "子供用椅子の貸し出し、子供用食器の貸し出し、店内全面禁煙",
    "detail": "浜田。座敷席があり、小さなお子様連れでも安心して食事ができます。「にこにこ店」特典として、お子様連れへの割引や配慮がある店舗です。"
  },
  {
    "name": "あじ菜 (和食レストラン)",
    "category": "restaurant",
    "lat": 40.8002675,
    "lng": 140.740921,
    "amenities": "おむつ交換スペース、子供用椅子の貸し出し、子供用食器の貸し出し、店内全面禁煙",
    "detail": "家族での食事に適した和食店です。おむつ替えスペースが確保されており、小さなお子様連れでも気兼ねなく利用できる環境です。"
  },
  {
    "name": "スターバックスコーヒー 青森中央インター店",
    "category": "restaurant",
    "lat": 40.7972234,
    "lng": 140.739372,
    "amenities": "おむつ交換スペース、粉ミルク用のお湯の提供、店内全面禁煙",
    "detail": "広い店内でベビーカーの移動がしやすく、おむつ替え設備も完備されています。ドライブスルーもあり、車移動の親子に便利です。"
  },
  {
    "name": "オートバックス 青森東",
    "category": "shopping",
    "lat": 40.8275868,
    "lng": 140.7832560,
    "amenities": "おむつ交換スペース、プレイルーム・スペース、店内全面禁煙",
    "detail": "カー用品店ですが、店内にキッズスペースが設置されており、点検や修理の待ち時間にお子様を遊ばせることができます。"
  },
  {
    "name": "セカンドストリート イオンタウン青森浜田店",
    "category": "shopping",
    "lat": 40.799897,
    "lng": 140.7590785,
    "amenities": "授乳室、おむつ交換スペース、店内全面禁煙",
    "detail": "イオンタウン内に位置し、買い物ついでに授乳やおむつ替えができる「ほのぼの店」として登録されています。"
  },
  {
    "name": "青森中央郵便局",
    "category": "public",
    "lat": 40.824414,
    "lng": 140.757927,
    "amenities": "授乳室、おむつ交換スペース、妊婦等のための休憩用椅子等、店内全面禁煙",
    "detail": "堤町。1階に授乳室とおむつ替え台を完備しています。手続きの待ち時間も親子で安心して過ごせるよう配慮されています。"
  },
  {
    "name": "八甲田ロープウェー山麓駅",
    "category": "landmark",
    "lat": 40.6808229,
    "lng": 140.831655,
    "amenities": "おむつ交換スペース、妊婦等のための休憩用椅子等、店内全面禁煙",
    "detail": "寒水沢。観光拠点としておむつ替え設備を配置しています。観光の前後で親子での休憩が可能です。"
  },
  {
    "name": "青森県営スケート場",
    "category": "playground",
    "lat": 40.7973959,
    "lng": 140.75125,
    "amenities": "おむつ交換スペース、妊婦等のための休憩用椅子等、店内全面禁煙",
    "detail": "冬季のレジャー拠点として、おむつ替え設備を完備しています。にこにこ店として、親子でのスタンプカード特典などもあります。"
  },
  {
    "name": "幸せ写真スタジオクローバー",
    "category": "shopping",
    "lat": 40.79901367,
    "lng": 140.7486528,
    "amenities": "授乳室、おむつ交換スペース、店内全面禁煙",
    "detail": "にこにこ店として、記念写真撮影の際にL判写真1枚プレゼントの特典があります。店内には赤ちゃんケア用のスペースも完備されています。"
  },
  {
    "name": "パレットプラザ 生協つくしが丘店",
    "category": "shopping",
    "lat": 40.8170766,
    "lng": 140.784622,
    "amenities": "店内全面禁煙",
    "detail": "にこにこ店特典としてデジカメプリント等の割引があります。生協内にあるため、買い物の合間に写真の注文や受け取りができて便利です。"
  },
  {
    "name": "青森県社会福祉協議会 (フードバンク)",
    "category": "public",
    "lat": 40.816636,
    "lng": 140.75059,
    "amenities": "授乳室、おむつ交換スペース、粉ミルク用のお湯の提供、妊婦等のための休憩用椅子等、店内全面禁煙",
    "detail": "県民福祉プラザ内にあり、あおもりフードバンクステーションを併設しています。授乳やおむつ替えの環境が整い、生活支援の窓口も兼ねています。"
  },
  {
    "name": "魚民 青森駅前店",
    "category": "restaurant",
    "lat": 40.828247,
    "lng": 140.735872,
    "amenities": "授乳室、おむつ交換スペース、プレイルーム・スペース、店内全面禁煙",
    "detail": "青森駅前。個室やキッズルームが完備されており、小さなお子様連れでも気兼ねなく食事が楽しめます。家族での食事やママ友会におすすめの店舗です。"
  },
  {
    "name": "ローソン 青森市内各店",
    "category": "convenience",
    "lat": 40.8244,
    "lng": 140.7411,
    "amenities": "粉ミルク用のお湯の提供、店内全面禁煙",
    "detail": "青森市内のローソン全店が「にこにこ店」に登録されており、パスポート提示で対象商品の割引が受けられます。移動中の調乳用お湯の提供など、身近なセーフティネットとして機能しています。"
  },
  {
    "name": "ファミリーマート 青森市内各店",
    "category": "convenience",
    "lat": 40.827347,
    "lng": 140.7368412,
    "amenities": "粉ミルク用のお湯の提供、店内全面禁煙",
    "detail": "青森市内の多くの店舗で、多目的トイレの提供や調乳用お湯の提供などの支援を行っています。一部店舗ではフードバンク活動（フードドライブ）も実施しており、地域支援の拠点となっています。"
  },
  {
    "name": "セブン-イレブン 青森市内各店",
    "category": "convenience",
    "lat": 40.826765,
    "lng": 140.73492,
    "amenities": "粉ミルク用のお湯の提供、店内全面禁煙",
    "detail": "青森市と「地域活性化包括連携協定」を締結しており、子育て支援に積極的に取り組んでいます。店員への声がけで調乳用お湯の提供を受けることが可能です。"
  },
  {
    "name": "イオンスタイル八戸沼館 (キッズリパブリック)",
    "category": "shopping",
    "lat": 40.5278,
    "lng": 141.49719,
    "amenities": "授乳室、おむつ交換スペース、ベビーカーの貸し出し、粉ミルク用のお湯の提供、プレイルーム・スペース、子供用椅子の貸し出し、妊婦等のための休憩用椅子等、店内全面禁煙",
    "detail": "2025年4月25日にグランドオープンした八戸市の最新店舗です。ベビー・キッズ専門店「キッズリパブリック」を核に、木の温もりあふれる室内遊び場「もくいくひろば」や、男性利用可能な授乳個室、ベビースケール完備の休憩室を備えています。成長段階に合わせた専門店モデルを導入しており、最新のケア設備が整っています。"
  },
  {
    "name": "八戸ショッピングセンター ラピア",
    "category": "shopping",
    "lat": 40.5219,
    "lng": 141.5034,
    "amenities": "授乳室、おむつ交換スペース、粉ミルク用のお湯の提供、プレイルーム・スペース、店内全面禁煙",
    "detail": "八戸市江陽2丁目。各階の北側トイレ付近におむつ替え台が設置されており、3階には鍵付きの個室授乳室を完備しています。粉ミルク用のお湯は3階フードコート内の店舗にて提供を受けることが可能です。1階には屋内遊園地「ファンタジードーム」があり、遊びとケアの並立が可能です。"
  },
  {
    "name": "八戸公園 (こどもの国・植物園)",
    "category": "playground",
    "lat": 40.474683,
    "lng": 141.516356,
    "amenities": "授乳室、おむつ交換スペース、粉ミルク用のお湯の提供、プレイルーム・スペース、トイレ内ベビーチェア",
    "detail": "八戸市大字十日市。広大な園内に遊園地や動物ゾーンがあり、ファミリーに最も人気のお出かけスポットです。園内の「三八五・こども館」には、授乳室、おむつ替え台、子供用トイレが完備されており、雨天時や冬場でも安心して遊ばせることができます。"
  },
  {
    "name": "トイザらス・ベビーザらス 八戸店",
    "category": "shopping",
    "lat": 40.529921,
    "lng": 141.497488,
    "amenities": "授乳室、おむつ交換スペース、ベビーカーの貸し出し、粉ミルク用のお湯の提供、プレイルーム・スペース、店内全面禁煙",
    "detail": "八戸市沼館4丁目。専門店ならではの充実した赤ちゃん休憩室を完備しています。授乳室やおむつ替え台、シンクが揃っており、ベビーカーのまま入店しておもちゃ選びを楽しみながら、安心して赤ちゃんのケアを行うことができます。"
  },
  {
    "name": "はるやま八戸店",
    "category": "shopping",
    "lat": 40.52190,
    "lng": 141.49790,
    "amenities": "授乳室、おむつ交換スペース、店内全面禁煙",
    "detail": "ビジネスウェア専門店でありながら、ほのぼの店として店内にベビー休憩室を設置しています。小さなお子様連れでのフォーマルウェア選びや買い物をサポートしています。"
  },
  {
    "name": "ファミリーマート 三戸中央病院通店",
    "category": "convenience",
    "lat": 40.3903,
    "lng": 141.2668,
    "amenities": "粉ミルク用のお湯の提供、トイレ内ベビーチェア、店内全面禁煙",
    "detail": "三戸町大字川守田。24時間営業のコンビニエンスストアとして、調乳用お湯の提供などのサポートを行っています。多目的トイレ等の設備も整い、移動中の親子にとって身近な休憩拠点となっています。"
  },
  {
    "name": "バーデハウスふくち",
    "category": "hotel",
    "lat": 40.477869,
    "lng": 141.37409,
    "amenities": "おむつ交換スペース、プレイルーム・スペース、店内全面禁煙",
    "detail": "南部町「バーデパーク」内にある温泉・プール施設です。親子で一日中遊べるスポットとして評価が高く、おむつ替え台等のケア設備も完備されており、レジャーの際の休憩拠点として機能しています。"
  },
  {
    "name": "ユニバース階上店",
    "category": "shopping",
    "lat": 40.4534931,  
    "lng": 141.618427,
    "amenities": "おむつ交換スペース、店内全面禁煙",
    "detail": "階上町耳ヶ吠地区。地域密着型のスーパーとしておむつ替えスペースを確保し、ベビーカーのまま入店してゆったりと買い物が楽しめる環境を提供しています。"
  },
  {
    "name": "マエダストア名久井店",
    "category": "shopping",
    "lat": 40.423267,
    "lng": 141.334537,
    "amenities": "おむつ交換スペース、店内全面禁煙",
    "detail": "南部町。子育て用品助成券（ぴよすくーぽん）の取扱店であり、日常的な買い物と合わせて、お子様のケアができる設備を整えています。"
  },
  {
    "name": "魚民 八戸東口駅前店",
    "category": "restaurant",
    "lat": 40.5091655,
    "lng": 141.432868,
    "amenities": "授乳室、おむつ交換スペース、プレイルーム・スペース、子供用椅子の貸し出し、子供用食器の貸し出し、店内全面禁煙",
    "detail": "八戸市内など県内各地に展開。キッズルームや個室が完備されており、小さなお子様連れの家族での食事やママ友会に非常に人気の高い居酒屋です。"
  },
  {
    "name": "お好み焼道とん堀 八戸店",
    "category": "restaurant",
    "lat": 40.5264420,
    "lng": 141.498776,
    "amenities": "子供用椅子の貸し出し、子供用食器の貸し出し、店内全面禁煙",
    "detail": "江陽。座敷席があり、赤ちゃんを寝かせたまま食事が可能です。お子様用の食器貸出など、ファミリー層への配慮が充実しています。"
  },
  {
    "name": "こどもはっち (はっち4階)",
    "category": "playground",
    "lat": 40.509971,
    "lng": 141.490691,
    "amenities": "授乳室、おむつ交換スペース、粉ミルク用のお湯の提供、プレイルーム・スペース、店内全面禁煙",
    "detail": "三日町。八戸ポータルミュージアム「はっち」内にある木育をテーマにした室内遊び場です。赤ちゃん専用の「はいはいスペース」や清潔な授乳室があり、中心街での休憩に最適です。"
  },
   {
    "name": "八戸市視聴覚センター 児童科学館",
    "category": "museum",
    "lat": 40.507451,  
    "lng": 141.5064698,
    "amenities": "おむつ交換スペース、トイレ内ベビーチェア、店内全面禁煙",
    "detail": "類家。科学展示やプラネタリウムが楽しめる施設です。手作り工作教室なども開催されており、就学前後の子供たちが学びながら遊べる公共拠点です。"
  },
  {
    "name": "道の駅 はしかみ",
    "category": "roadside_station",
    "lat": 40.458241,
    "lng": 141.60830,
    "amenities": "おむつ交換スペース、トイレ内ベビーチェア、子供用椅子の貸し出し、店内全面禁煙",
    "detail": "耳ヶ吠地区。新鮮な産直品が揃い、多目的トイレ内におむつ替え台を完備。併設の飲食店「東門」やパン屋「ふうこぱん」も子連れを歓迎しています。"
  },
  {
    "name": "キリストっぷ (新郷村)",
    "category": "convenience",
    "lat": 40.454846,
    "lng": 141.1498727,
    "amenities": "店内全面禁煙",
    "detail": "新郷村のユニークな売店。日曜のみの営業ですが、地域の貴重な物販・休憩ポイントとして機能しており、観光の際の立ち寄りに便利です。"
  },
  {
    "name": "西松屋 八戸売市店",
    "category": "shopping",
    "lat": 40.518184,  
    "lng": 141.480006,
    "amenities": "授乳室、おむつ交換スペース、粉ミルク用のお湯の提供、店内全面禁煙",
    "detail": "「ほのぼの店」登録の専門店。通路が広く、ベビーカーのまま入店してお子様と一緒にゆっくり衣料品や育児用品を選ぶことができます。"
  },
  {
    "name": "西松屋 八戸田向店",
    "category": "shopping",
    "lat": 40.5001715,
    "lng": 141.5207325,
    "amenities": "授乳室、おむつ交換スペース、粉ミルク用のお湯の提供、店内全面禁煙",
    "detail": "市民病院近くに位置。専門店ならではの清潔な授乳環境とおむつ替え設備を整え、お出かけ中の赤ちゃんのケア拠点として高い利便性を誇ります。"
  },
  {
    "name": "八戸市美術館",
    "category": "museum",
    "lat": 40.511719,
    "lng": 141.4913085,
    "amenities": "おむつ交換スペース、トイレ内ベビーチェア、店内全面禁煙",
    "detail": "2021年オープンの新美術館。バリアフリーが徹底され、多目的トイレ内におむつ替え台を完備。市民の活動拠点として、親子でのアート体験を推奨しています。"
  },
  {
    "name": "YSアリーナ八戸",
    "category": "playground",
    "lat": 40.508269,
    "lng": 141.481001,
    "amenities": "おむつ交換スペース、妊婦等のための休憩用椅子等、店内全面禁煙",
    "detail": "屋内スケート場としてバリアフリー設計。館内各所に清潔なおむつ替えシート完備の多目的トイレがあり、冬季のレジャーも赤ちゃん連れで楽しめます。"
  },
  {
    "name": "ハッピードラッグ青森階上店",
    "category": "shopping",
    "lat": 40.4525,
    "lng": 141.61816,
    "amenities": "おむつ交換スペース、トイレ内ベビーチェア、店内全面禁煙",
    "detail": "階上町耳ヶ吠。地域密着のドラッグストア。広い駐車場とバリアフリーな店内で、日常の買い物に合わせたおむつ替えなどのケアが可能です。"
  },
  {
    "name": "ユニバース 階上店",
    "category": "shopping",
    "lat": 40.4535339,
    "lng": 141.6183950,
    "amenities": "おむつ交換スペース、トイレ内ベビーチェア、店内全面禁煙",
    "detail": "耳ヶ吠。地域の「ほのぼの店」。おむつ替え台が設置されており、ベビーカーのまま入店してゆったりと買い物が楽しめます。"
  },
  {
    "name": "フォレストピア階上",
    "category": "restaurant",
    "lat": 40.430430,   
    "lng": 141.579408,
    "amenities": "子供用椅子の貸し出し、子供用食器の貸し出し、店内全面禁煙",
    "detail": "鳥屋部地区。階上早生そばやジェラートが人気。座敷席もあり、小さなお子様連れでも落ち着いて地域の味覚を楽しむことができます。"
  },
  {
    "name": "マエダストア 名久井店 (南部町)",
    "category": "shopping",
    "lat": 40.4233333,
    "lng": 141.334580,
    "amenities": "おむつ交換スペース、店内全面禁煙",
    "detail": "南部町の「ぴよすくーぽん（子育て用品給付券）」取扱店。子育て世帯の家計と日常ケアを支える重要な地域インフラです。"
  },
  {
    "name": "天使のえくぼ (八戸市)",
    "category": "restaurant",
    "lat": 40.49800158,
    "lng": 141.5521886,
    "amenities": "子供用椅子の貸し出し、子供用食器の貸し出し、店内全面禁煙",
    "detail": "「にこにこ店」指定。お子様連れでの食事利用で、お子様1人につきジュース1杯サービス。アットホームな雰囲気で親子連れに人気です。"
  },
  {
    "name": "タカズダイナー (八戸市)",
    "category": "restaurant",
    "lat": 40.4767671,
    "lng": 141.479032,
    "amenities": "子供用食器の貸し出し、店内全面禁煙",
    "detail": "パスポート提示により対象ドリンクが半額（100円）になる手厚いサービスを提供。散策中の親子休憩に最適なスポットです。"
  },
  {
    "name": "はんこの店 タジマ (八戸市)",
    "category": "shopping",
    "lat": 40.519619,
    "lng": 141.5416535,
    "amenities": "店内全面禁煙",
    "detail": "来店したお子様にミニお菓子やおもちゃのプレゼントを実施。パスポート提示で5%割引もあり、地域に根ざした温かい接客が特徴です。"
  },
  {
    "name": "サロン・ド・マサル (八戸市)",
    "category": "nursing",
    "lat": 40.522772,
    "lng": 141.507797,      
    "amenities": "プレイルーム・スペース、店内全面禁煙",
    "detail": "にこにこ店登録の美容室。パスポート提示で技術料金5%割引。店内には子供向けコーナーもあり、忙しいパパ・ママをサポートします。"
  },
  {
    "name": "熊ノ沢温泉 (八戸市)",
    "category": "hotel",
    "lat": 40.520964,
    "lng": 141.424513,
    "amenities": "授乳室、おむつ交換スペース、店内全面禁煙",
    "detail": "「ほのぼの店」としてケア設備を完備。毎月26日の風呂の日には小学生以下の入浴料が無料になり、親子でリフレッシュできる銭湯です。"
  },
  {
    "name": "八戸郵便局",
    "category": "public",
    "lat": 40.519513,
    "lng": 141.4972524,
    "amenities": "おむつ交換スペース、妊婦等のための休憩用椅子等、店内全面禁煙",
    "detail": "1階にベビーカーで利用できる記載台や多目的トイレ（おむつ替え台）を完備。手続きの際も赤ちゃん連れでスムーズに利用可能です。"
  },
  {
    "name": "八戸税務署",
    "category": "public",
    "lat": 40.522324,
    "lng": 141.5004769,
    "amenities": "おむつ交換スペース、トイレ内ベビーチェア、店内全面禁煙",
    "detail": "バリアフリー化が進んでおり、多目的トイレにおむつ替え設備を設置。確定申告等の混雑時も安心して手続きが行えるよう配慮されています。"
  },
  {
    "name": "江陽児童館",
    "category": "playground",
    "lat": 40.520254,
    "lng": 141.5044891,
    "amenities": "授乳室、おむつ交換スペース、プレイルーム・スペース",
    "detail": "地域の子どもの遊び場。乳幼児向け開放時間があり、ラピア等の商業施設から近いため、買い物の前後に遊ばせるのに最適です。"
  },
  {
    "name": "種差キャンプ場",
    "category": "playground",
    "lat": 40.510600,
    "lng": 141.6095102,
    "amenities": "おむつ交換スペース、店内全面禁煙",
    "detail": "名勝・種差海岸の天然芝生地。近隣休憩施設におむつ替え台があり、ベビーカー対応の遊歩道で親子でのピクニックが楽しめます。"
  },
  {
    "name": "富士自動車整備工場 (八戸市)",
    "category": "nursing",
    "lat": 40.522980,
    "lng": 141.5016504,
    "amenities": "プレイルーム・スペース、店内全面禁煙",
    "detail": "車検や部品代の割引など子育て世帯の経済支援が非常に手厚い工場。待ち時間に子供を遊ばせられるスペースも確保されています。"
  },
  {
    "name": "はしかみハマの駅 あるでぃ～ば",
    "category": "roadside_station",
    "lat": 40.472526,
    "lng": 141.646638,
    "amenities": "おむつ交換スペース、トイレ内ベビーチェア、子供用椅子の貸し出し、店内全面禁煙",
    "detail": "大蛇地区の鮮魚拠点。おむつ替え設備があり、地元の新鮮な魚介を親子で楽しめる食堂も併設されています。海沿いのドライブ休憩に便利。"
  },
  {
    "name": "三八五・こども館 (八戸公園内)",
    "category": "playground",
    "lat": 40.474953,
    "lng": 141.519431,
    "amenities": "授乳室、おむつ交換スペース、粉ミルク用のお湯の提供、プレイルーム・スペース、トイレ内ベビーチェア、子供用食器の貸し出し",
    "detail": "八戸公園の屋内中核施設。ダイナミックなネット遊具や室内遊び場に加え、非常に充実した授乳・ケア設備があり、悪天候時も親子で1日中遊べます。"
  },
  {
    "name": "ファンタジードーム 八戸店 (ラピア内)",
    "category": "playground",
    "lat": 40.5219,
    "lng": 141.5027144,
        "amenities": "プレイルーム・スペース、トイレ内ベビーチェア、子供用椅子の貸し出し、店内全面禁煙",
    "detail": "ラピア1階の巨大屋内遊園地。メリーゴーランド等のアトラクションが充実。商業施設内のため、おむつ替えや授乳の環境に即座にアクセス可能です。"
  },
  {
    "name": "新たんぼのゆっこ (五戸町)",
    "category": "hotel",
    "lat": 40.531192,
    "lng": 141.301972,
    "amenities": "おむつ交換スペース、子供用椅子の貸し出し、店内全面禁煙",
    "detail": "「五戸温泉」の愛称で親しまれる施設。風呂の日割引があり、おむつ替え台も完備。親子での入浴と休憩を推奨している「にこにこ店」です。"
  },
  {
    "name": "五戸まきば温泉",
    "category": "hotel",
    "lat": 40.5133856,
    "lng": 141.329908,
    "amenities": "おむつ交換スペース、子供用椅子の貸し出し、店内全面禁煙",
    "detail": "広い座敷の休憩所があり、おむつ替えも可能。家族での貸切風呂の相談もでき、赤ちゃん連れに優しい環境が整っています。"
  },
  {
    "name": "間木ノ平グリーンパーク (新郷村)",
    "category": "playground",
    "lat": 40.4294101,
    "lng": 141.068852,
    "amenities": "おむつ交換スペース、子供用椅子の貸し出し、店内全面禁煙",
    "detail": "キャンプやポニー乗馬、魚のつかみ取りができる広大なレジャー施設。管理棟内におむつ替え台があり、アウトドアを親子で楽しむ拠点です。"
  },
  {
    "name": "南部町役場 (健康こども課)",
    "category": "public",
    "lat": 40.420443,
    "lng": 141.3303695,
    "amenities": "授乳室、おむつ交換スペース、粉ミルク用のお湯の提供、店内全面禁煙",
    "detail": "1階ロビーに授乳・おむつ替えスペースを設置。保健師による育児相談や、町独自の子育て支援サービス「ぴよすくーぽん」の発行窓口です。"
  },
  {
    "name": "サンデー 八戸沼館店",
    "category": "shopping",
    "lat": 40.5270851,
    "lng": 141.496851,
    "amenities": "おむつ交換スペース、ベビーカーの貸し出し、店内全面禁煙",
    "detail": "広い通路設計でベビーカーの貸出もあり。ホームセンターながらおむつ替え台を完備し、家族での週末のまとめ買いを強力にサポートしています。"
  },
  {
    "name": "ローソン 八戸市内全店",
    "category": "convenience",
    "lat": 40.5089583,
    "lng": 141.488007,
    "amenities": "粉ミルク用のお湯の提供、店内全面禁煙",
    "detail": "八戸市内のローソン各店が「わくわく店」に登録。パスポート提示による割引券配布や、店員への声がけによる調乳用お湯の提供を行っています。"
  },
  {
    "name": "セブン-イレブン 八戸市内全店",
    "category": "convenience",
    "lat": 40.5137455,
    "lng": 141.4892872,
    "amenities": "粉ミルク用のお湯の提供、店内全面禁煙",
    "detail": "八戸市と包括連携協定を締結。一部店舗での宅配サービスに加え、移動中の親子への調乳お湯提供など、身近なセーフティネットとして機能しています。"
  },
  {
    "name": "観音茶屋 東門",
    "category": "restaurant",
    "lat": 40.4333243,
    "lng": 141.632867,
    "amenities": "店内全面禁煙",
    "detail": "階上町耳ヶ吠。伝統的な階上早生そばを楽しめる飲食店です。地域に根ざした「にこにこ店」として、家族連れの来店を歓迎しています。"
  },
  {
    "name": "ハッピードラッグ青森階上店",
    "category": "shopping",
    "lat": 40.4525,    
    "lng": 141.61812,
    "amenities": "おむつ交換スペース、トイレ内ベビーチェア、店内全面禁煙",
    "detail": "階上町耳ヶ吠。広い駐車場を備えたバリアフリーな店舗です。店内におむつ替え台があり、移動中や買い物中の急なケアにも対応できる安心の拠点です。"
  },
  {
    "name": "ツルハドラッグ 福地南部店",
    "category": "shopping",
    "lat": 40.4677476,    
    "lng": 141.3880329,
    "amenities": "おむつ交換スペース、店内全面禁煙",
    "detail": "南部町。町の「ぴよすくーぽん（子育て用品給付券）」取扱店です。おむつ替えスペースを確保しており、子育て世帯の日常的な買い物を経済・設備両面で支えています。"
  },
  {
    "name": "サンケア南部薬局",
    "category": "shoppinge",
    "lat": 40.426342,
    "lng": 141.3324468,
    "amenities": "店内全面禁煙",
    "detail": "南部町。子育て用品助成券が利用可能な地域密着型の薬局です。乳幼児の健康相談や日用品の購入において、親子連れに配慮した対応を行っています。"
  },
  {
    "name": "薬王堂 青森階上店",
    "category": "shopping",
    "lat": 40.4552765,  
    "lng": 141.614172,
    "amenities": "店内全面禁煙",
    "detail": "階上町。地域の「ほのぼの店」として、ベビーカーのままスムーズに入店できる広い通路を確保。消耗品の買い物と合わせて親子で利用しやすい環境です。"
  },
  {
    "name": "十和田市現代美術館",
    "category": "museum",
    "lat": 40.614204,
    "lng": 141.2093077,
    "amenities": "授乳室、おむつ交換スペース、ベビーカーの貸し出し、トイレ内ベビーチェア、店内全面禁煙",
    "detail": "西二番町。官庁街通りに位置するアート拠点です。屋外の大型作品はベビーカーのまま自由に鑑賞でき、子供たちも触れて遊べるため人気があります。多目的トイレ内におむつ替え台を完備しているほか、受付でベビーカーの貸し出しも行っています。"
  },
  {
    "name": "十和田市馬事公苑 駒っこランド",
    "category": "playground",
    "lat": 40.6143880,
    "lng": 141.1303260,
    "amenities": "授乳室、おむつ交換スペース、粉ミルク用のお湯の提供、プレイルーム・スペース、子供用椅子の貸し出し、店内全面禁煙",
    "detail": "大字深持。馬をテーマにした広大な公園で、巨大な遊具や117mのローラーすべり台が子供たちに大人気です。交流館内には授乳室、おむつ替え台、ミルク用のお湯、子供用椅子が完備されており、お弁当を持ち込んで1日中家族で過ごせます。"
  },
  {
    "name": "ハピたのかふぇ",
    "category": "restaurant",
    "lat": 40.614399,
    "lng": 141.214039,
    "amenities": "授乳室、おむつ交換スペース、ベビーカーの貸し出し、プレイルーム・スペース、子供用椅子の貸し出し、子供用食器の貸し出し、妊婦等のための休憩用椅子等、店内全面禁煙",
    "detail": "地元の野菜をふんだんに使ったコミュニティカフェです。絵本の貸し出しや子育て相談にも対応しており、アットホームな雰囲気の中で親子での食事が楽しめます。"
  },
  {
    "name": "イオンスーパーセンター 十和田店",
    "category": "shopping",
    "lat": 40.603214,
    "lng": 141.256940,
    "amenities": "授乳室、おむつ交換スペース、粉ミルク用のお湯の提供、店内全面禁煙",
    "detail": "「青森県にこにこ店」として登録。毎月1日にはベビー衣料や粉ミルク、おむつなどが5%割引になる特典があります。広い店内に赤ちゃん休憩室を完備しており、日常の買い物と合わせたケアが可能です。"
  },
  {
    "name": "東京靴流通センター 十和田稲生町店",
    "category": "shopping",
    "lat": 40.6131164,
    "lng": 141.213774,
    "amenities": "店内全面禁煙",
    "detail": "稲生町。にこにこ店特典として、小学生以下を対象に1足税込1,100円以上の定価商品が5%OFFになります。家族の靴選びを経済的にサポートしている店舗です [3, 4]。"
  },
  {
    "name": "ドコモショップ 十和田店",
    "category": "shopping",
    "lat": 40.6194340,
    "lng": 141.209113,
    "amenities": "店内全面禁煙",
    "detail": "にこにこ店として、各店舗で様々な特典やプレゼントを用意しています。待ち時間に配慮した店づくりが行われています。"
  },
  {
    "name": "紳士服のコナカ 十和田店",
    "category": "shopping",
    "lat": 40.62248053,
    "lng": 141.2085350,
    "amenities": "店内全面禁煙",
    "detail": "にこにこ店に登録されており、パスポート提示でお買い上げ総額から5%の割引が受けられます。"
  },
  {
    "name": "ゆーゆーランド 大黒湯",
    "category": "hotel",
    "lat": 40.6094417,
    "lng": 141.209307,
    "amenities": "おむつ交換スペース、店内全面禁煙",
    "detail": "地域の温浴施設。毎月26日の「風呂の日」には、保護者同伴の小学生以下の入浴料金が無料になるサービスを実施しており、親子でのリフレッシュを推奨しています。"
  },
  {
    "name": "ローソン・ファミリーマート・セブン-イレブン 十和田市内各店",
    "category": "convenience",
    "lat": 40.615411,
    "lng": 141.2118821,
    "amenities": "粉ミルク用のお湯の提供、店内全面禁煙",
    "detail": "十和田市内の主要コンビニ各店が「わくわく店」に登録されています。移動中の調乳用お湯の提供や多目的トイレの貸し出しなど、身近なセーフティネットとして機能しています。"
  },
  {
    "name": "イオンモール下田 (おいらせ町)",
    "category": "shopping",
    "lat": 40.6022900,
    "lng": 141.417564,
    "amenities": "授乳室、おむつ交換スペース、ベビーカーの貸し出し、粉ミルク用のお湯の提供、プレイルーム・スペース、トイレ内ベビーチェア、子供用椅子の貸し出し、子供用食器の貸し出し、妊婦等のための休憩用椅子等、店内全面禁煙",
    "detail": "上北地域最大級の商業拠点です。1階に静かな個室授乳室、2階には最大3名が同時利用できる共同授乳大部屋があり、用途に合わせて使い分けが可能です。日曜日には助産師による無料相談会も実施されており、ソフト・ハード両面で非常に充実しています。"
  },
  {
    "name": "青森県立三沢航空科学館 (三沢市)",
    "category": "museum",
    "lat": 40.7081342,
    "lng": 141.3912118,
    "amenities": "授乳室、おむつ交換スペース、ベビーカーの貸し出し、プレイルーム・スペース、トイレ内ベビーチェア、店内全面禁煙",
    "detail": "三沢市大字関根。館内の「こどもスクエア」は幼児も楽しめる遊び場になっており、授乳室やおむつ替えコーナーが完備されています。受付ではベビーカーの無料貸出（4台）も行っており、乳幼児連れの長距離ドライブにおける重要な休憩拠点となっています。"
  },
  {
    "name": "六ヶ所村原燃ＰＲセンター (六ヶ所村)",
    "category": "museum",
    "lat": 40.9791910,
    "lng": 141.334517,
    "amenities": "授乳室、おむつ交換スペース、ベビーカーの貸し出し、プレイルーム・スペース、店内全面禁煙",
    "detail": "おむつ替えコーナーや授乳室が整備されており、エネルギーについて学びながら親子でゆったりと過ごせる公共施設です。地域のファミリー層や観光客を支えるインフラとして機能しています。"
  },
  {
    "name": "道の駅 みさわ 斗南藩記念観光村 (三沢市)",
    "category": "roadside_station",
    "lat": 40.7869053,
    "lng": 141.362070,
    "amenities": "授乳室、おむつ交換スペース、店内全面禁煙",
    "detail": "広大な敷地内に遊具やポニー乗馬ができる広場があり、親子でのレジャーに最適です。館内には授乳室とおむつ替え設備が整っており、観光の合間のケア拠点として便利です。"
  },
  {
    "name": "魚民 三沢アメリカ村店 (三沢市)",
    "category": "restaurant",
    "lat": 40.6856167,
    "lng": 141.3653364,
    "amenities": "授乳室、おむつ交換スペース、プレイルーム・スペース、子供用椅子の貸し出し、子供用食器の貸し出し、店内全面禁煙",
    "detail": "三沢市幸町。キッズルームや個室が完備されており、小さなお子様連れでも周囲を気にせず食事が楽しめます。ママ友会や家族での食事に非常に人気の高い店舗です。"
  },
  {
    "name": "道の駅 しちのへ (七戸町)",
    "category": "roadside_station",
    "lat": 40.716611,
    "lng": 141.155035,
    "amenities": "授乳室、おむつ交換スペース、店内全面禁煙",
    "detail": "七戸町荒熊内。新幹線・七戸十和田駅に隣接。館内に授乳やおむつ替えが可能なスペースが確保されており、広域移動や観光の際の貴重なケア拠点となっています。"
  },
  {
    "name": "小川原湖ふれあい村 (東北町)",
    "category": "playground",
    "lat": 40.7276743,
    "lng": 141.283447,
    "amenities": "おむつ交換スペース、店内全面禁煙",
    "detail": "東北町大字上野。湖畔でのキャンプやピクニックを楽しめるレジャー施設。管理棟等の周辺施設におむつ替え台が設置されており、アウトドア体験を親子で楽しむ拠点です。"
  },
  {
    "name": "野辺地町観光物産ＰＲセンター (野辺地町)",
    "category": "roadside_station",
    "lat": 40.8560595,
    "lng": 141.1191396,
    "amenities": "おむつ交換スペース、店内全面禁煙",
    "detail": "野辺地町字野辺地。特産品の販売や飲食店を併設。多目的トイレ内におむつ替えシートを完備しており、下北半島や青森市方面へのドライブの合間の休憩に適しています。"
  },
  {
    "name": "トントゥビレッジ (東通村)",
    "category": "playground",
    "lat": 41.1964964,
    "lng": 141.377617,
    "amenities": "授乳室、おむつ交換スペース、プレイルーム・スペース、店内全面禁煙",
    "detail": "大型滑り台やボルダリング遊具、幼児用ミニハウスを備えた屋内遊び場が非常に充実しています。完全に隔離された授乳室もあり、下北半島のファミリー観光に不可欠なインフラです。"
  },
  {
    "name": "ローソン・ファミリーマート 三沢・上北郡各店",
    "category": "convenience",
    "lat": 40.68629248,
    "lng": 141.366555,
    "amenities": "粉ミルク用のお湯の提供、店内全面禁煙",
    "detail": "三沢市および上北郡内の各店舗が「わくわく店」に登録されています。子育て応援パスポート提示による割引クーポンの配布や、店員への声がけで調乳用お湯の提供を受けることが可能です。"
  },
  {
    "name": "スカイプラザミサワ (三沢市)",
    "category": "shopping",
    "lat": 40.685181,
    "lng": 141.365151,
    "amenities": "おむつ交換スペース、店内全面禁煙",
    "detail": "三沢市中央町。米軍基地ゲート近くの商業施設。館内におむつ替え設備があり、市街地散策や買い物の途中で利用できるケア拠点です。"
  },
  {
    "name": "スパハウスろっかぽっか (六ヶ所村)",
    "category": "hotel",
    "lat": 40.918647,
    "lng": 141.3356187,
    "amenities": "おむつ交換スペース、子供用椅子の貸し出し、店内全面禁煙",
    "detail": "六ヶ所村大字鷹架。にこにこ店としてプレゼント進呈などの特典があります。おむつ替え環境も整っており、親子でリフレッシュできる温浴・休憩施設です。"
  },
  {
    "name": "サーティワンアイスクリーム イオンモール下田店 (おいらせ町)",
    "category": "restaurant",
    "lat": 40.601917,
    "lng": 141.417892,
    "amenities": "子供用椅子の貸し出し、店内全面禁煙",
    "detail": "「にこにこ店」に登録されており、子育て応援パスポートの提示でクレープが30円引き（3枚まで）になる特典があります。ショッピング合間の休憩スポットとして人気で、モール共有のケア設備にも即座にアクセス可能です。"
  },
  {
    "name": "ハリカミプレ 野辺地店 (野辺地町)",
    "category": "shopping",
    "lat": 40.868096,
    "lng": 141.127882,
    "amenities": "店内全面禁煙",
    "detail": "出産内祝いやギフトを扱う専門店です。赤ちゃん用品の購入や内祝いの注文時に、赤ちゃんの顔写真入りメッセージカードをサービスしてくれるなど、出産直後のご家族に嬉しい支援を行っています。"
  },
  {
    "name": "セレクション久保 (東北町)",
    "category": "shopping",
    "lat": 40.732294,
    "lng": 141.263564,
    "amenities": "店内全面禁煙",
    "detail": "東北町にあるアパレルショップです。毎月第2日曜日には、パスポート提示でお買い上げ金額から10%割引になる「にこにこ店」特典を実施しており、成長の早いお子様の衣類購入を支えています。"
  },
  {
    "name": "うめや (東北町)",
    "category": "shopping",
    "lat": 40.7320200,
    "lng": 141.2633261,
    "amenities": "店内全面禁煙",
    "detail": "地域密着の商店です。奉仕品等の一部を除き、パスポート提示で2割引またはスタンプ10倍進呈の非常に手厚いサービスを行っています。日常の買い物を通じた地域の子育て支援拠点です。"
  },
  {
    "name": "まちの駅 七福 (むつ市)",
    "category": "restaurant",
    "lat": 41.2955,
    "lng": 141.2125,
    "amenities": "授乳室、おむつ交換スペース、粉ミルク用のお湯の提供、プレイルーム・スペース、トイレ内ベビーチェア、子供用椅子の貸し出し、子供用食器の貸し出し、店内全面禁煙",
    "detail": "むつ市柳町。地域の憩いと交流のコミュニティスペースです。お茶の無料提供やお弁当の持ち込みが可能で、授乳室やプレイルーム等のケア設備が非常に充実しています。食堂利用以外でも休憩スペースとして親子で気軽に利用できる貴重な拠点です。"
  },
  {
    "name": "ミスタードーナツ むつショップ (むつ市)",
    "category": "restaurant",
    "lat": 41.2915,
    "lng": 141.2155,
    "amenities": "子供用食器の貸し出し、店内全面禁煙",
    "detail": "むつ市中心部の定番休憩スポットです。「にこにこ店」特典として、パスポート提示によりドーナツやパイの20%割引（条件あり）やお子様向けキッズドリンクの無料サービスを実施しており、親子でのティータイムを歓迎しています。"
  },
  {
    "name": "アグテーブル (むつ市)",
    "category": "restaurant",
    "lat": 41.2885,
    "lng": 141.2185,
    "amenities": "子供用椅子の貸し出し、子供用食器の貸し出し、店内全面禁煙",
    "detail": "「にこにこ店」に登録されている飲食店です。お子様用の特別メニューが用意されているほか、お子様のドリンクがおかわり自由になるなど、家族での外食を楽しく、経済的にサポートするサービスを提供しています。"
  },
  {
    "name": "お菓子工房やなぎや 睦町本店 (むつ市)",
    "category": "shopping",
    "lat": 41.2925,
    "lng": 141.2215,
    "amenities": "店内全面禁煙",
    "detail": "地域に親しまれている菓子店です。「にこにこ店」特典として、パスポート提示でポイントが2倍付与されるほか、お子様連れでの来店時に粗品のプレゼントがあり、日常の買い物を通じて子育て世帯を応援しています。"
  },
  {
    "name": "むつ早掛レイクサイドヒルキャンプ場 (むつ市)",
    "category": "playground",
    "lat": 41.3115,
    "lng": 141.2455,
    "amenities": "おむつ交換スペース、店内全面禁煙",
    "detail": "早掛沼のほとりにある自然豊かなレジャー拠点です。「にこにこ店」として、デイキャンプの日帰り利用料が中学生以下無料になる特典があります。管理棟等におむつ替え設備があり、アウトドアを親子で楽しむのに適しています。"
  },
  {
    "name": "上路電器 (むつ市)",
    "category": "shopping",
    "lat": 41.2855,
    "lng": 141.2155,
    "amenities": "店内全面禁煙",
    "detail": "地域密着の家電販売店です。「にこにこ店」として、お子様連れの来店時にコーヒーやお茶、ジュースのサービスを提供しています。高額な育児出費が続く中で、消耗品等の「当店赤札よりさらに10%割引」という経済支援も行っています。"
  },
  {
    "name": "萬福・下北食堂 (むつ市)",
    "category": "restaurant",
    "lat": 41.2935,
    "lng": 141.2145,
    "amenities": "子供用食器の貸し出し、店内全面禁煙",
    "detail": "アットホームな雰囲気の食堂です。パスポート提示でお子様にソフトドリンク1杯無料サービスを実施しています。地元の食材を使った料理を、小さなお子様連れでも安心して楽しむことができる環境です。"
  },
  {
    "name": "ローソン・ファミリーマート むつ・下北各店",
    "category": "convenience",
    "lat": 41.2922,
    "lng": 141.2141,
    "amenities": "粉ミルク用のお湯の提供、店内全面禁煙",
    "detail": "むつ市および下北郡内の主要コンビニ各店が「わくわく店」に登録されています。移動中の調乳用お湯の提供や多目的トイレの利用など、広域移動が不可欠な下北地域における重要なセーフティネットとなっています。"
  },
  {
    "name": "薬王堂 むつ中央店 (むつ市)",
    "category": "shopping",
    "lat": 41.2845,
    "lng": 141.2185,
    "amenities": "おむつ交換スペース、店内全面禁煙",
    "detail": "地域の「ほのぼの店」として、ベビーカーでの移動が容易な広い通路とおむつ替え台を完備しています。日用品やベビー用品の買い物と合わせて、赤ちゃんのケアを済ませることができます。"
  },
  {
    "name": "道の駅なみおか アップルヒル",
    "category": "roadside_station",
    "lat": 40.7225,
    "lng": 140.5980,
    "amenities": "授乳室、おむつ交換スペース、粉ミルク用のお湯の提供、プレイルーム・スペース、店内全面禁煙",
    "detail": "青森市浪岡。広大な敷地に大型遊具や「ふわふわドーム」があり、子供たちに大人気のスポットです。産直コーナーも充実しており、館内には授乳やおむつ替えのための専用スペースが完備されています。"
  },
  {
    "name": "道の駅 浅虫温泉 ゆーさ浅虫",
    "category": "roadside_station",
    "lat": 40.8920,
    "lng": 140.8624,
    "amenities": "授乳室、おむつ交換スペース、粉ミルク用のお湯の提供、妊婦等のための休憩用椅子等、店内全面禁煙",
    "detail": "青森市浅虫。3階のキッズコーナー付近におむつ替え台があり、身障者用トイレも利用可能です。展望風呂や産直市場を併設しており、ドライブの合間に親子でリフレッシュできる拠点です。"
  },
  {
    "name": "道の駅 みさわ 斗南藩記念観光村",
    "category": "roadside_station",
    "lat": 40.7355,
    "lng": 141.3685,
    "amenities": "授乳室、おむつ交換スペース、店内全面禁煙",
    "detail": "三沢市谷地頭。遊具やポニー乗馬を楽しめる広場があり、家族連れに最適なレジャー拠点です。館内には授乳室とおむつ替え設備が整備されており、移動中のケアも安心です。"
  },
  {
    "name": "道の駅 しちのへ",
    "category": "roadside_station",
    "lat": 40.7025,
    "lng": 141.1485,
    "amenities": "授乳室、おむつ交換スペース、店内全面禁煙",
    "detail": "七戸町荒熊内。新幹線駅に隣接し、広域移動の際の重要な休憩拠点です。館内に授乳やおむつ替えが可能なスペースが確保されており、産直品の買い物と合わせた利用が可能です。"
  },
  {
    "name": "道の駅 野辺地 (観光物産ＰＲセンター)",
    "category": "roadside_station",
    "lat": 40.8655,
    "lng": 141.1285,
    "amenities": "おむつ交換スペース、店内全面禁煙",
    "detail": "野辺地町。特産品販売や飲食店を併設しています。多目的トイレ内におむつ替えシートを完備しており、下北方面や青森市方面へのドライブの合間の立ち寄りに適しています。"
  },
  {
    "name": "道の駅 奥入瀬ろまんパーク",
    "category": "roadside_station",
    "lat": 40.5855,
    "lng": 141.0125,
    "amenities": "おむつ交換スペース、妊婦等のための休憩用椅子等、店内全面禁煙",
    "detail": "十和田市奥瀬。観光物産館におむつ替え台や休憩設備を備えています。にこにこ店として、一定金額以上の購入でコーヒーサービスがあるなど、子育て世帯への特典もあります。"
  },
  {
    "name": "道の駅 はしかみ",
    "category": "roadside_station",
    "lat": 40.4505, 
    "lng": 141.608597,
    "amenities": "おむつ交換スペース、トイレ内ベビーチェア、子供用椅子の貸し出し、店内全面禁煙",
    "detail": "階上町耳ヶ吠。新鮮な野菜や魚貝類が揃う産地直売所です。多目的トイレ内におむつ替え台を完備し、併設の飲食店でも子供用椅子の貸出を行うなど、親子で利用しやすい環境です。"
  },
  {
    "name": "フォレストピア階上",
    "category": "shopping",
    "lat": 40.4355,
    "lng": 141.5755,
    "amenities": "子供用椅子の貸し出し、子供用食器の貸し出し、店内全面禁煙",
    "detail": "階上町鳥屋部。産直野菜の販売と飲食店を兼ねた施設です。座敷席があり、小さなお子様連れでも落ち着いて地域の味覚を楽しむことができ、ジェラートも親子に人気です。"
  },
  {
    "name": "むつ来さまい館",
    "category": "museum",
    "lat": 41.2935,
    "lng": 141.1825,
    "amenities": "授乳室、おむつ交換スペース、トイレ内ベビーチェア、店内全面禁煙",
    "detail": "むつ市中心部の観光・物産・交流拠点です。2階に授乳室とおむつ替え台が整備されており、広々とした休憩・展示スペースで、長距離移動の合間に赤ちゃんのケアが可能です。"
  },
  {
    "name": "ユニバース サンタウン松園店",
    "category": "shopping",
    "lat": 39.760597,
    "lng": 141.172162,
    "address": "盛岡市北松園２-１３-１",
    "amenities": "おむつ替えコーナーを完備しています。"
  },
  {
    "name": "ユニバース 中野店",
    "category": "shopping",
    "lat": 39.692520,
    "lng": 141.172148,
    "address": "盛岡市中野１-２５-１０",
    "amenities": "ベビーカーのまま入店して買い物が可能です。"
  },
  {
    "name": "ユニバース 盛岡南店",
    "category": "shopping",
    "lat": 39.6613062,
    "lng": 141.1481783,
    "address": "盛岡市津志田西２-１７-５０",
    "amenities": "授乳スペースとおむつ替えコーナーがあり、ミルク用のお湯の提供も行っています。"
  },
  {
    "name": "ユニバース 鉈屋町店",
    "category": "shopping",
    "lat": 39.690924,
    "lng": 141.156922,
    "address": "盛岡市鉈屋町１１番８号",
    "amenities": "おむつ替えコーナーが整備されており、ベビーカーのまま入店も可能です。"
  },
  {
    "name": "ユニバース 青山店",
    "category": "shopping",
    "lat": 39.7251566,
    "lng": 141.114415,
    "address": "盛岡市青山二丁目5-10",
    "amenities": "おむつ替えコーナーがあり、ベビーカーのままでもスムーズにお買い物ができます。"
  },
  {
    "name": "ユニバース 盛岡みたけ店",
    "category": "shopping",
    "lat": 39.7431078,
    "lng": 141.1233737,
    "address": "盛岡市みたけ二丁目8番25号",
    "amenities": "ベビーカートの貸出サービスがあり、キッズスペースも完備しています。"
  },
  {
    "name": "みかわや みゆき館",
    "category": "shopping",
    "lat": 39.6986136,
    "lng": 141.154943,
    "address": "盛岡市肴町５－１",
    "amenities": "おむつ替えコーナーを設置しています。"
  },
  {
    "name": "みかわや しょうが館",
    "category": "shopping",
    "lat": 39.698664,
    "lng": 141.15568,   
    "address": "盛岡市南大通１－６－６",
    "amenities": "おむつ替えコーナーを利用いただけます。"
  },
  {
    "name": "レクサス盛岡",
    "category": "nursing",
    "lat": 39.67553,
    "lng": 141.1560474,
    "address": "盛岡市東仙北２－１５－２５",
    "amenities": "おむつ替えコーナーとミルク用のお湯の提供があり、ベビーカーでの入店も歓迎しています。"
  },
  {
    "name": "岩手トヨペット 盛岡支店",
    "category": "nursing",
    "lat": 39.718570,
    "lng": 141.141576,
    "address": "盛岡市上田２－１９－４０",
    "amenities": "おむつ替えコーナー、ミルク用お湯の提供があり、ベビーカーのまま入店可能です。"
  },
  {
    "name": "岩手トヨペット 盛岡北支店", 
    "category": "nursing",
    "lat": 39.7493097,
    "lng": 141.1320975,
    "address": "盛岡市厨川３－１２－１０",
    "amenities": "ミルク用のお湯を提供しており、ベビーカーのまま入店して相談いただけます。"
  },
  {
    "name": "岩手トヨペット 盛岡南支店",
    "category": "nursing",
    "lat": 39.6605272,
    "lng": 141.1605238,
    "address": "盛岡市津志田中央二丁目１－３５",
    "amenities": "粉ミルク用のお湯の提供があり、ベビーカーでの入店もスムーズです。"
  },
  {
    "name": "岩手トヨペット 本宮支店",
    "category": "nursing",
    "lat": 39.684559,
    "lng": 141.1378792,
    "address": "盛岡市向中野2丁目19番33号",
    "amenities": "おむつ替えコーナー完備。ミルク用お湯の提供もあり、ベビーカーのまま入店可能です。"
  },
  {
    "name": "岩手トヨタ自動車 盛岡店",
    "category": "nursing",
    "lat": 39.7308586,
    "lng": 141.122997,
    "address": "盛岡市上堂4丁目12-11",
    "amenities": "おむつ替えコーナーと調乳用お湯の提供があり、ベビーカーでの来店に対応しています。"
  },
  {
    "name": "岩手トヨタ自動車 本宮店",
    "category": "nursing",
    "lat": 39.6845063,
    "lng": 141.134893,
    "address": "盛岡市向中野3丁目1番18号",
    "amenities": "おむつ替えが可能でミルク用お湯も提供。ベビーカーのまま入店いただけます。"
  },
  {
    "name": "ドコモショップ 盛岡店",
    "category": "shopping",
    "lat": 39.684057,
    "lng": 141.1260054,
    "address": "盛岡市上堂４丁目１３－１",
    "amenities": "広い通路で、ベビーカーのまま入店して手続きが可能です。"
  },
  {
    "name": "ドコモショップ 盛岡南サンサ店",
    "category": "shopping",
    "lat": 39.661949,
    "lng": 141.148277,
    "address": "盛岡市津志田中央三丁目27番40号",
    "amenities": "お子様連れでも安心。ベビーカーのまま入店が可能です。"
  },
  {
    "name": "ドコモショップ 盛岡茶畑店",
    "category": "shopping",
    "lat": 39.6940363,
    "lng": 141.16711278,
    "address": "盛岡市中野1丁目２－２１",
    "amenities": "ベビーカーでの入店に対応しており、お子様連れでも利用しやすい環境です。"
  },
  {
    "name": "ドコモショップ 盛岡本宮店",
    "category": "shopping",
    "lat": 39.684074,
    "lng": 141.1259833,
    "address": "盛岡市西仙北1丁目27-17",
    "amenities": "ベビーカーのまま入店可能な設計になっています。"
  },
  {
    "name": "ドコモショップ 盛岡大通店",
    "category": "shopping",
    "lat": 39.7036754,
    "lng": 141.1438848,
    "address": "〒020-0022 岩手県盛岡市大通３丁目２−７ 鈴木ビル 1階",
    "amenities": "ベビーカーのまま入店いただけます。"
  },
  {
    "name": "ドコモショップ イオンモール盛岡店",
    "category": "shopping",
    "lat": 39.7115413,
    "lng": 141.099117,
    "amenities": "おむつ替えコーナーとミルク用お湯の提供があり、ベビーカー入店も可能です。"
  },
  {
    "name": "ドコモショップ 盛岡バイパス店",
    "category": "shopping",
    "lat": 39.7223165,
    "lng": 141.1367070,
    "address": "盛岡市高松２丁目３－２２",
    "amenities": "ベビーカーのまま入店してゆったりとお過ごしいただけます。"
  },
  {
    "name": "トイザらス・ベビーザらス 盛岡南店",
    "category": "shopping",
    "lat": 39.684430,
    "lng": 141.1293546,
    "address": "盛岡市本宮7-1-1 イオンモール盛岡南2F",
    "amenities": "授乳スペース、おむつ替えコーナー、ミルク用お湯の提供、ベビーカー入店など、完璧な育児支援設備が整っています。"
  },
  {
    "name": "マイヤ 青山店",
    "category": "shopping",
    "lat": 39.721136,
    "lng": 141.113099,
     "address": "盛岡市青山１丁目１９－１",
    "amenities": "おむつ替えコーナーがあり、ベビーカーのまま買い物が楽しめます。"
  },
  {
    "name": "マイヤ 仙北店",
    "category": "shopping",
    "lat": 39.6858428,
    "lng": 141.1469582,
    "address": "盛岡市西仙北１丁目３８－３０",
    "amenities": "おむつ替え設備とミルク用お湯の提供があり、ベビーカーでの入店も可能です。"
  },
  {
    "name": "いわて生協 コ－プ高松",
    "category": "shopping",
    "lat": 39.7207859,
    "lng": 141.1379419,
    "address": "盛岡市上田４－２１－５",
    "amenities": "おむつ替えコーナーがあり、ベビーカーでの買い物に対応しています。"
  },
  {
    "name": "いわて生協 ベルフ山岸",
    "category": "shopping",
    "lat": 39.7152791,
    "lng": 141.1694716,
    "address": "盛岡市山岸２－１６－８",
    "amenities": "授乳スペース、おむつ替え、調乳用お湯、ベビーカー入店のすべてに対応した手厚い店舗です。"
  },
  {
    "name": "いわて生協 ベルフ青山",
    "category": "shopping",
    "lat": 39.729546,
    "lng": 141.1143356,
    "address": "盛岡市青山４－１７－２",
    "amenities": "おむつ替えコーナーが設置されており、ベビーカーのまま入店できます。"
  },
  {
    "name": "いわて生協 ベルフまつぞの",
    "category": "shopping",
    "lat": 39.7542274,
    "lng": 141.163180,
    "address": "盛岡市松園3-18-20",
    "amenities": "授乳スペースや調乳用お湯などのケア設備が充実しており、ベビーカーでも快適に利用できます。"
  },
  {
    "name": "平金商店 パステル館",
    "category": "shopping",
    "lat": 39.6976921,
    "lng": 141.1538217,    
    "address": "盛岡市肴町8-18",
    "amenities": "中心街の買い物に便利。おむつ替えコーナーがあり、ベビーカー入店も可能です。"
  },
{
    "name": "薬王堂 盛岡青山店",
    "category": "shopping",
    "lat": 39.720899,
    "lng": 141.11429799,
    "address": "盛岡市青山１丁目18-15",
    "amenities": "おむつ替えコーナーがあり、ベビーカーのまま入店して買い物ができます。"
  },
  {
    "name": "薬王堂 盛岡厨川店",
    "category": "shopping",
    "lat": 39.750520,
    "lng": 141.128057,
    "address": "盛岡市厨川五丁目13番地1",
    "amenities": "おむつ替えコーナーを完備。ベビーカー入店も可能です。"
  },
  {
    "name": "薬王堂 盛岡三ツ割店",
    "category": "shopping",
    "lat": 39.7297907,
    "lng": 141.1632140,
    "address": "盛岡市三ツ割５丁目１８番1号",
    "amenities": "ベビーカーのままスムーズに入店いただけます。"
  },
  {
    "name": "薬王堂 盛岡都南店",
    "category": "shopping",
    "lat": 39.6539595,
    "lng": 141.1494160,
    "address": "盛岡市永井２３地割１７－８",
    "amenities": "広い通路で、ベビーカーでの入店に対応しています。"
  },
  {
    "name": "薬王堂 盛岡太田店",
    "category": "shopping",
    "lat": 39.6890332,
    "lng": 141.11855204,
    "address": "盛岡市本宮五丁目8-20",
    "amenities": "おむつ替えコーナーがあり、ベビーカー入店も歓迎しています。"
  },
  {
    "name": "薬王堂 盛岡本宮店",
    "category": "shopping",
    "lat": 39.6918853,
    "lng": 141.1330384,
    "address": "盛岡市本宮三丁目１１－１５",
    "amenities": "ベビーカーのまま入店してゆっくりお買い物ができます。"
  },
  {
    "name": "薬王堂 盛岡みたけ店",
    "category": "shopping",
    "lat": 39.7383279,
    "lng": 141.1092369,
    "address": "盛岡市月が丘３丁目40-10",
    "amenities": "おむつ替えが可能で、ベビーカーのまま入店もスムーズです。"
  },
  {
    "name": "薬王堂 盛岡山王店",
    "category": "shopping",
    "lat": 39.6999174,
    "lng": 141.164558,
    "address": "盛岡市山王町１０－６",
    "amenities": "おむつ替えコーナーを設置しており、ベビーカー入店も可能です。"
  },
  {
    "name": "薬王堂 盛岡渋民店",
    "category": "shopping",
    "lat": 39.8429869,
    "lng": 141.168804,
    "address": "盛岡市渋民字渋民５７－１",
    "amenities": "おむつ替えコーナー完備。ベビーカーでの来店に対応しています。"
  },
  {
    "name": "薬王堂 盛岡中野店",
    "category": "shopping",
    "lat": 39.69365852,
    "lng": 141.169203,
    "address": "盛岡市中野一丁目１６－１",
    "amenities": "おむつ替えコーナーがあり、ベビーカーのまま入店いただけます。"
  },
  {
    "name": "薬王堂 盛岡緑が丘店",
    "category": "shopping",
    "lat": 39.7334423,
    "lng": 141.14284453,
    "address": "盛岡市緑が丘３－１－１０",
    "amenities": "おむつ替え設備を整え、ベビーカー入店も可能です。"
  },
  {
    "name": "薬王堂 盛岡向中野店",
    "category": "shopping",
    "lat": 39.681242,
    "lng": 141.1434831,
    "address": "盛岡市向中野１－１０－２７",
    "amenities": "おむつ替えコーナーがあり、ベビーカーのまま買い物が楽しめます。"
  },
  {
    "name": "薬王堂 盛岡津志田店",
    "category": "shopping",
    "lat": 39.664018,
    "lng": 141.1536423,
    "address": "盛岡市津志田中央３丁目１番７号",
    "amenities": "おむつ替えコーナー完備。ベビーカーでの入店もスムーズです。"
  },
  {
    "name": "薬王堂 盛岡飯岡店",
    "category": "shopping",
    "lat": 39.6720509,
    "lng": 141.1316049,
    "address": "盛岡市北飯岡４丁目４番６号",
    "amenities": "おむつ替えが可能で、ベビーカーのまま入店いただけます。"
  },
  {
    "name": "カワチ薬品 盛岡みたけ店",
    "category": "shopping",
    "lat": 39.74211,
    "lng": 141.1200093,
    "address": "盛岡市みたけ4-2-1",
    "amenities": "通路が広く設計されており、ベビーカーのまま入店して買い物ができます。"
  },
  {
    "name": "中古車市場本店",
    "category": "nursing",
    "lat": 39.710273,
    "lng": 141.1185279,
    "address": "岩手県盛岡市天昌寺町９−４３",
    "amenities": "授乳スペース、おむつ替え、調乳用お湯、ベビーカー入店、さらに子連れ優先席まで完備された手厚い店舗です。"
  },
  {
    "name": "イオンスーパーセンター 盛岡渋民店",
    "category": "shopping",
    "lat": 39.850418,
    "lng": 141.1728132,
    "address": "盛岡市渋民字鶴飼20-1",
    "amenities": "授乳スペース、おむつ替えコーナー、ミルク用のお湯があり、ベビーカーでの買い物も快適です。"
  },
  {
    "name": "イオン盛岡南",
    "category": "shopping",
    "lat": 39.6834975,
    "lng": 141.1284437,
    "address": "盛岡市本宮7丁目1番1号",
    "amenities": "授乳室やおむつ替えコーナーはもちろん、お湯の提供やベビーカー入店、優先席まで揃う充実の設備です。"
  },
  {
    "name": "イオン 盛岡店",
    "category": "shopping",
    "lat": 39.7117574,
    "lng": 141.099981,
    "address": "盛岡市前潟4丁目7-1",
    "amenities": "授乳、おむつ替え、調乳用お湯、ベビーカー対応、優先席と、親子連れに完璧なサポートを提供しています。"
  },
  {
    "name": "ネッツトヨタ岩手 本社中央店",
    "category": "nursing",
    "lat": 39.677438,
    "lng": 141.1561373,
    "address": "盛岡市東仙北２丁目１３－３５",
    "amenities": "おむつ替えコーナーとミルク用お湯の提供があり、ベビーカーでの入店も歓迎しています。"
  },
  {
    "name": "ネッツトヨタ岩手 みたけ店",
    "category": "nursing",
    "lat": 39.741412,
    "lng": 141.120969,
    "address": "盛岡市みたけ４丁目１－７",
    "amenities": "おむつ替え設備とお湯の提供があり、ベビーカーのまま入店して相談いただけます。"
  },
  {
    "name": "高橋種苗店",
    "category": "shopping",
    "lat": 39.6873557,
    "lng": 141.1507161,
    "address": "盛岡市仙北２丁目９番３号",
    "amenities": "粉ミルク用のお湯を提供しており、ベビーカー入店や優先席の利用も可能です。"
  },
  {
    "name": "大丸屋",
    "category": "shopping",
    "lat": 39.7054224,
    "lng": 141.1544663,
    "address": "盛岡市本町通１丁目９番４２号",
    "amenities": "ベビーカーでの入店に対応し、お子様連れ優先席も完備しています。"
  },
  {
    "name": "ＥＬＥＣＴＲＩＣ",
    "category": "shopping",
    "lat": 39.7028650,
    "lng": 141.1447829,
    "address": "盛岡市大通２丁目８－１４ ＭＯＳＳビル４Ｆ",
    "amenities": "授乳スペースとおむつ替えコーナーがあり、ベビーカーでの入店も可能です。"
  },
  {
    "name": "ディスクノート もりおか",
    "category": "shopping",
    "lat": 39.7028650,
    "lng": 141.1447829,
    "address": "盛岡市大通２丁目８－１４ MOSSビル４Ｆ",
    "amenities": "おむつ替えコーナーを設置しており、ベビーカーでの入店もスムーズです。"
  },
  {
    "name": "スイーツ プラス カフェ しゅくる",
    "category": "shopping",
    "lat": 39.7078825,
    "lng": 141.154958,
    "address": "盛岡市本町通一丁目５番１３号",
    "amenities": "ミルク用のお湯の提供があり、ベビーカーのまま入店いただけます。お子様連れ優先席も用意されています。"
  },
  {
    "name": "菅原文具店",
    "category": "shopping",
    "lat": 39.7157301,
    "lng": 141.127557,
    "address": "盛岡市前九年２丁目５－４",
    "amenities": "店内に授乳スペースを完備しています。"
  },
  {
    "name": "小野染彩所",
    "category": "shopping",
    "lat": 39.7088102,
    "lng": 141.1358079,
    "address": "盛岡市材木町10-16",
    "amenities": "ミルク用のお湯を提供しており、ベビーカーでの入店も可能です。"
  },
  {
    "name": "ＫＡＮ薬舗",
    "category": "shopping",
    "lat": 39.714175,
    "lng": 141.1099767,
    "address": "盛岡市大館町24番75号",
    "amenities": "ミルク用のお湯の提供があり、お子様連れ優先席も完備しています。"
  },
  {
    "name": "七福や　大館店",
    "category": "shopping",
    "lat": 39.7155522,
    "lng": 141.109819,
    "address": "盛岡市大館町24-75",
    "amenities": "お子様連れ優先席があり、安心して立ち寄れる店舗です。"
  },
  {
    "name": "おくやま食料品店",
    "category": "shopping",
    "lat": 41.2935,
    "lng": 141.1825,
    "address": "盛岡市厨川1-5-10",
    "amenities": "粉ミルク用のお湯を提供しています。"
  },
  {
    "name": "となんカナンカフェ・おーでんせ",
    "category": "shopping",
    "lat": 39.663310,
    "lng": 141.148277,
    "address": "盛岡市津志田西二丁目１６－９１",
    "amenities": "授乳スペース、おむつ替えコーナー、ミルク用お湯、ベビーカー対応、優先席のすべてが揃った非常に手厚い施設です。"
  },
  {
    "name": "コナカ 盛岡月が丘店",
    "category": "nursing",
    "lat": 39.734886,
    "lng": 141.1153217,
    "address": "盛岡市月が丘1-30-51",
    "amenities": "ベビーカーのままスムーズに入店して買い物が楽しめます。"
  },
  {
    "name": "コナカ 盛岡津志田店",
    "category": "shopping",
    "lat": 39.667474,
    "lng": 141.1579319,
    "address": "盛岡市三本柳1-1-3",
    "amenities": "通路が広く設計されており、ベビーカーでの入店に対応しています。"
  },
  {
    "name": "コナカ 盛岡西バイパス店",
    "category": "shopping",
    "lat": 39.6846883,
    "lng": 141.130685,
    "address": "盛岡市向中野3-4-25",
    "amenities": "ベビーカーのまま入店可能なバリアフリー設計です。"
  },
  {
    "name": "シリウス",
    "category": "nursing",
    "lat": 39.6745729,
    "lng": 141.1654942,
    "address": "盛岡市東安庭2-12-15",
    "amenities": "調乳用のお湯の提供を行っています。"
  },
  {
    "name": "カメラのキクヤ",
    "category": "shopping",
    "lat": 39.7063942,
    "lng": 141.1529525,
    "address": "盛岡市本町通1丁目16-1",
    "amenities": "ミルク用のお湯を提供しており、ベビーカーのまま入店可能です。"
  },
  {
    "name": "スーパーマーケットマルイチ 城西店",
    "category": "shopping",
    "lat": 39.705073,
    "lng": 141.126371,
    "address": "盛岡市城西町13－12",
    "amenities": "ミルク用のお湯の提供があり、ベビーカーでの買い物に対応しています。"
  },




  {
    "name": "スーパーマーケットマルイチ 東安庭店",
    "category": "shopping",
    "lat": 39.705073,
    "lng": 141.126371,
    "address": "盛岡市東安庭三丁目17-41",
    "amenities": "調乳用のお湯を提供しており、ベビーカーのまま入店いただけます。"
  },
  {
    "name": "スーパーマルイチ 中ノ橋通店",
    "category": "shopping",
    "lat": 39.705073,
    "lng": 141.126371,
    "address": "盛岡市中ノ橋通2丁目7番38号",
    "amenities": "おむつ替えコーナーがあり、ベビーカーのままスムーズに買い物ができます。"
  },
  {
    "name": "スーパーマルイチ みたけ店",
    "category": "shopping",
    "lat": 39.705073,
    "lng": 141.126371,
    "address": "盛岡市みたけ二丁目12-22",
    "amenities": "ミルク用のお湯の提供と、ベビーカー入店に対応しています。"
  },
  {
    "name": "マルイチ 本宮店",
    "category": "shopping",
    "lat": 39.705073,
    "lng": 141.126371,
    "address": "盛岡市本宮三丁目12-10",
    "amenities": "ベビーカーのまま入店してゆっくりお買い物を楽しめます。"
  },
  {
    "name": "TOTO盛岡ショールーム",
    "category": "nursing","lat": 39.705073,
    "lng": 141.126371,
    "address": "盛岡市本宮3-14-33",
    "amenities": "おむつ替えコーナーを設置しており、ベビーカーでの来場も可能です。"
  },
  {
    "name": "LIXIL盛岡ショールーム",
    "category": "nursing","lat": 39.705073,
    "lng": 141.126371,
    "address": "盛岡市本宮5－2－31",
    "amenities": "おむつ替え設備とミルク用お湯の提供があり、ベビーカー入店も歓迎しています。"
  },
  {
    "name": "クリナップ 盛岡ショールーム",
    "category": "nursing","lat": 39.705073,
    "lng": 141.126371,
    "address": "盛岡市向中野2-7-7",
    "amenities": "おむつ替えコーナーを完備。ベビーカーのまま入店して相談が可能です。"
  },
  {
    "name": "スーパーアークス 盛岡西バイパス店",
    "category": "shopping","lat": 39.705073,
    "lng": 141.126371,
    "address": "盛岡市向中野七丁目14番30号",
    "amenities": "授乳スペース、おむつ替え、ミルク用お湯、ベビーカー入店のすべてに対応した充実の大型店です。"
  },
  {
    "name": "ジョイス 本町店",
    "category": "shopping","lat": 39.705073,
    "lng": 141.126371,
    "address": "盛岡市本町通一丁目13番1号",
    "amenities": "おむつ替え設備とミルク用お湯の提供があり、ベビーカーでの来店も安心です。"
  },
  {
    "name": "ジョイス 盛岡東安庭店",
    "category": "shopping","lat": 39.705073,
    "lng": 141.126371,
    "address": "盛岡市東安庭一丁目8番地20号",
    "amenities": "授乳スペースやおむつ替えコーナー、調乳用お湯が揃い、ベビーカー移動もスムーズな環境です。"
  },
  {
    "name": "ジョイス 盛岡月が丘店",
    "category": "shopping","lat": 39.705073,
    "lng": 141.126371,
    "address": "盛岡市みたけ五丁目3番45号",
    "amenities": "おむつ替えコーナーとミルク用お湯の提供があり、ベビーカーのまま買い物が可能です。"
  },
  {
    "name": "ジョイス 長橋台店",
    "category": "shopping","lat": 39.705073,
    "lng": 141.126371,
    "address": "盛岡市長橋町14番50号",
    "amenities": "おむつ替え設備を整え、ミルク用お湯の提供やベビーカー入店にも対応しています。"
  },
  {
    "name": "ジョイス 盛岡緑が丘店",
    "category": "shopping","lat": 39.705073,
    "lng": 141.126371,
    "address": "盛岡市緑が丘二丁目1番48号",
    "amenities": "おむつ替えが可能で、調乳用お湯の提供やベビーカーでの入店も歓迎しています。"
  },
  {
    "name": "ジョイス 見前店",
    "category": "shopping","lat": 39.705073,
    "lng": 141.126371,
    "address": "盛岡市西見前14地割87番地",
    "amenities": "粉ミルク用のお湯を提供しており、ベビーカーのまま入店して買い物が可能です。"
  },
  {
    "name": "エムズエクスポ 盛岡店",
    "category": "shopping","lat": 39.705073,
    "lng": 141.126371,
    "address": "盛岡市みたけ3-36-1",
    "amenities": "通路が広く設計されており、ベビーカーのままスムーズに入店いただけます。"
  },
  {
    "name": "産ビル",
    "category": "shopping","lat": 39.705073,
    "lng": 141.126371,
    "address": "盛岡市大通一丁目２番１号",
    "amenities": "授乳スペースとおむつ替えコーナーがあり、ベビーカーでの入店も歓迎しています。"
  },
  {
    "name": "フォーエル 盛岡店",
    "category": "shopping","lat": 39.705073,
    "lng": 141.126371,
    "address": "盛岡市月が丘1-29-1",
    "amenities": "ベビーカーのまま入店してショッピングが楽しめます。"
  },
  {
    "name": "DCM 盛南店",
    "category": "shopping","lat": 39.705073,
    "lng": 141.126371,
    "address": "盛岡市向中野7丁目16番77号",
    "amenities": "授乳スペースとおむつ替えコーナーが整備されています。"
  },
  {
    "name": "株式会社川徳",
    "category": "shopping","lat": 39.705073,
    "lng": 141.126371,
    "address": "盛岡市菜園１丁目10-1",
    "amenities": "授乳スペース、おむつ替え、調乳用お湯、ベビーカー対応に加え、ベビーカーの貸出サービスも行っている非常に手厚い百貨店です。"
  },
  {
    "name": "ビッグハウス川久保店",
    "category": "shopping","lat": 39.705073,
    "lng": 141.126371,
    "address": "盛岡市津志田町1丁目10-1",
    "amenities": "おむつ替えコーナーとミルク用お湯の提供があり、ベビーカーでの入店も可能です。"
  },
  {
    "name": "ユニバース 久慈川崎町店",
    "category": "shopping","lat": 39.705073,
    "lng": 141.126371,
    "address": "久慈市川崎町１３-１０",
    "amenities": "ベビーカーの貸出や、トイレ内にベビーチェアを完備するなど、お子様連れに配慮した設備が整っています。"
  },
  {
    "name": "ユニバース 久慈ＳＣ店",
    "category": "shopping","lat": 39.705073,
    "lng": 141.126371,
    "address": "久慈市長内町３０-７３-６",
    "amenities": "店内におむつ替えコーナーを設置しています。"
  },
  {
    "name": "岩手トヨペット 久慈支店",
    "category": "nursing","lat": 39.705073,
    "lng": 141.126371,
    "address": "久慈市大川目町３地割１６－３",
    "amenities": "調乳用のお湯を提供しており、ベビーカーのまま入店して相談が可能です。"
  },
  {
    "name": "ドコモショップ 久慈店",
    "category": "shopping","lat": 39.705073,
    "lng": 141.126371,
    "address": "久慈市長内町３０－１６－１",
    "amenities": "ベビーカーでの入店に対応しており、お子様連れでも利用しやすい環境です。"
  },
  {
    "name": "薬王堂 久慈SC店",
    "category": "shopping","lat": 39.705073,
    "lng": 141.126371,
    "address": "久慈市長内町第30地割５４－２",
    "amenities": "広い通路で、ベビーカーのままスムーズに入店いただけます。"
  },
  {
    "name": "薬王堂 久慈店",
    "category": "shopping","lat": 39.705073,
    "lng": 141.126371,
    "address": "久慈市旭町第９地割16-1",
    "amenities": "おむつ替えが可能で、ベビーカーのまま入店もスムーズです。"
  },
  {
    "name": "薬王堂 岩手野田店",
    "category": "shopping","lat": 39.705073,
    "lng": 141.126371,
    "address": "久慈市宇部町第13地割５５－１",
    "amenities": "おむつ替えコーナーがあり、ベビーカーでの入店も歓迎しています。"
  },
  {
    "name": "薬王堂 久慈川崎店",
    "category": "shopping","lat": 39.705073,
    "lng": 141.126371,
    "address": "久慈市川崎町１１－１９",
    "amenities": "おむつ替えコーナーを完備。ベビーカー入店も可能です。"
  },
  {
    "name": "インテリア仙台",
    "category": "shopping","lat": 39.705073,
    "lng": 141.126371,
    "address": "久慈市田屋町１－３０－８",
    "amenities": "授乳スペース、おむつ替え、ミルク用お湯、ベビーカー対応のすべてが揃った安心の店舗です。"
  },
  {
    "name": "ネッツトヨタ岩手 久慈店",
    "category": "nursing","lat": 39.705073,
    "lng": 141.126371,
    "address": "久慈市大川目町第２地割６－６",
    "amenities": "おむつ替え設備と調乳用お湯があり、ベビーカーのまま入店してゆっくりお過ごしいただけます。"
  },
  {
    "name": "家電 プラザほそやち",
    "category": "shopping","lat": 39.705073,
    "lng": 141.126371,
    "address": "久慈市中央2-8",
    "amenities": "おむつ替えコーナーやミルク用お湯の提供があり、ベビーカーでの来店も歓迎しています。"
  },
  {
    "name": "紳士服コナカ 久慈店",
    "category": "shopping","lat": 39.705073,
    "lng": 141.126371,
    "address": "久慈市長内町第33地割11-1",
    "amenities": "ベビーカーのまま入店してゆっくりお買い物を楽しめます。"
  },
  {
    "name": "ホソタにこにこ薬局",
    "category": "shopping","lat": 39.705073,
    "lng": 141.126371,
    "address": "久慈市十八日町1-15",
    "amenities": "調乳用のお湯を提供しており、ベビーカーのまま入店いただけます。"
  },
  {
    "name": "ジョイス 久慈中の橋店",
    "category": "shopping","lat": 39.705073,
    "lng": 141.126371,
    "address": "久慈市新中の橋第37地割63番1",
    "amenities": "おむつ替え設備とミルク用お湯の提供があり、ベビーカーでの入店も安心です。"
  },
  {
    "name": "ジョイス 久慈長内店",
    "category": "shopping","lat": 39.705073,
    "lng": 141.126371,
    "address": "久慈市長内町29地割10番地1",
    "amenities": "おむつ替えが可能で、調乳用お湯の提供やベビーカーでの入店も可能です。"
  },
  {
    "name": "ホソタ薬局",
    "category": "shopping","lat": 39.705073,
    "lng": 141.126371,
    "address": "久慈市十八日町1-21",
    "amenities": "ミルク用のお湯を提供しており、ベビーカーでの入店に対応しています。"
  },
  {
    "name": "キング薬局",
    "category": "shopping","lat": 39.705073,
    "lng": 141.126371,
    "address": "久慈市旭町10-61-1",
    "amenities": "粉ミルク用のお湯の提供があり、ベビーカーのまま入店いただけます。"
  },
  {
    "name": "クイーン薬局",
    "category": "shopping","lat": 39.705073,
    "lng": 141.126371,
    "address": "久慈市川崎町12-17",
    "amenities": "ミルク用のお湯を提供しており、ベビーカーでの入店が可能です。"
  },
  {
    "name": "ケアサポート・ホソタ",
    "category": "shopping","lat": 39.705073,
    "lng": 141.126371,
    "address": "久慈市旭町10-63",
    "amenities": "調乳用のお湯の提供があり、ベビーカーでの入店も可能です。"
  },
  {
    "name": "ユニバース 二戸堀野店",
    "category": "shopping","lat": 39.705073,
    "lng": 141.126371,
    "address": "二戸市堀野字大谷地３９",
    "amenities": "おむつ替えコーナーを完備しています。"
  },
  {
    "name": "ユニバース 二戸荷渡店",
    "category": "shopping","lat": 39.705073,
    "lng": 141.126371,
    "address": "二戸市石切所字荷渡14番5",
    "amenities": "ベビーカーの貸出サービスを行っており、お子様連れでも快適にお買い物ができます。"
  },
  {
    "name": "ドコモショップ 二戸店",
    "category": "shopping","lat": 39.705073,
    "lng": 141.126371,
    "address": "二戸市米沢字家ノ上１５４－１",
    "amenities": "ベビーカーのまま入店可能な設計になっています。"
  },
  {
    "name": "薬王堂 二戸店",
    "category": "shopping","lat": 39.705073,
    "lng": 141.126371,
    "address": "二戸市石切所字荷渡1-12",
    "amenities": "おむつ替えが可能で、ベビーカーのまま入店もスムーズです。"
  },
 {
    "name": "ネッツトヨタ岩手 二戸店",
    "category": "nursing","lat": 39.705073,
    "lng": 141.126371,
    "address": "二戸市金田一字上田面４３－１",
    "amenities": "おむつ替えコーナーを完備し、調乳用のお湯の提供やベビーカーでの入店にも対応しています。"
  },
  {
    "name": "メガネのオプトマックス",
    "category": "shopping","lat": 39.705073,
    "lng": 141.126371,
    "address": "二戸市堀野字大川原毛124-4",
    "amenities": "授乳スペースがあり、ミルク用のお湯の提供やベビーカーでの入店も可能です。"
  },
  {
    "name": "メガネの浪岡",
    "category": "shopping","lat": 39.705073,
    "lng": 141.126371,
    "address": "二戸市福岡字落久保14",
    "amenities": "授乳スペース、おむつ替えコーナー、調乳用お湯、ベビーカー入店のすべてに対応した手厚い店舗です。"
  },
  {
    "name": "イエローハット 二戸店",
    "category": "nursing","lat": 39.705073,
    "lng": 141.126371,
    "address": "二戸市堀野字大谷地59-5",
    "amenities": "おむつ替えコーナーを完備しており、ベビーカーのまま入店いただけます。"
  },
  {
    "name": "マツダオートザムヤマモトにのへ店",
    "category": "nursing","lat": 39.705073,
    "lng": 141.126371,
    "address": "二戸市堀野字長地31番地2",
    "amenities": "おむつ替えコーナーがあり、ベビーカーでの入店も可能です。"
  },
  {
    "name": "タケダスポーツ 二戸店",
    "category": "shopping","lat": 39.705073,
    "lng": 141.126371,
    "address": "二戸市福岡字上町9-1",
    "amenities": "ベビーカーのまま入店して買い物が楽しめます。"
  },
  {
    "name": "コンビニエンスストア Ｔ－ｍａｒｔ",
    "category": "convenience","lat": 39.705073,
    "lng": 141.126371,
    "address": "二戸市石切所字前田73-1-2",
    "amenities": "粉ミルク用のお湯を提供しており、ベビーカーでの入店も可能です。"
  },
  {
    "name": "二戸ショッピングセンター・ニコア",
    "category": "shopping","lat": 39.705073,
    "lng": 141.126371,
    "address": "二戸市米沢字荒谷25番地",
    "amenities": "授乳スペースとおむつ替えコーナーがあり、ベビーカーのまま買い物が可能です。"
  },
  {
    "name": "ＢＯＯＫ－ＮＥＴ－ＯＮＥ 二戸店",
    "category": "shopping","lat": 39.705073,
    "lng": 141.126371,
    "address": "二戸市堀野字長地11-1",
    "amenities": "おむつ替えコーナーが設置されており、ベビーカーでの入店もスムーズです。"
  },
  {
    "name": "巖手屋",
    "category": "shopping","lat": 39.705073,
    "lng": 141.126371,
    "address": "二戸市石切所字前田41-1",
    "amenities": "ミルク用のお湯の提供があり、ベビーカーのまま入店いただけます。"
  },
  {
    "name": "二戸地区合同庁舎売店",
    "category": "shopping","lat": 39.705073,
    "lng": 141.126371,
    "address": "二戸市石切所字荷渡6-3",
    "amenities": "粉ミルク用のお湯を提供しており、ベビーカーでの入店に対応しています。"
  },
  {
    "name": "二戸市ふるさと振興 なにゃーと物産センター",
    "category": "shopping","lat": 39.705073,
    "lng": 141.126371,
    "address": "二戸市石切所字森合68番地",
    "amenities": "調乳用のお湯を提供しており、ベビーカーのまま入店いただけます。"
  },
  {
    "name": "南部煎餅茶屋",
    "category": "shopping","lat": 39.705073,
    "lng": 141.126371,
    "address": "二戸市石切所字荒瀬49-1",
    "amenities": "粉ミルク用のお湯の提供を行っています。"
  },
  {
    "name": "紳士服コナカ 二戸店",
    "category": "shopping","lat": 39.705073,
    "lng": 141.126371,
    "address": "二戸市堀野字馬場44-10",
    "amenities": "ベビーカーのままスムーズに入店して買い物ができます。"
  },
  {
    "name": "門福呉服店",
    "category": "shopping","lat": 39.705073,
    "lng": 141.126371,
    "address": "二戸市福岡字上町2",
    "amenities": "ベビーカーのまま入店してゆっくりお買い物を楽しめます。"
  },
  {
    "name": "菓子処 相馬屋",
    "category": "shopping","lat": 39.705073,
    "lng": 141.126371,
    "address": "二戸市福岡字田町35",
    "amenities": "ミルク用のお湯を提供しており、ベビーカーでの入店も可能です。"
  },
  {
    "name": "岩手トヨタ自動車 二戸店",
    "category": "nursing","lat": 39.705073,
    "lng": 141.126371,
    "address": "二戸市堀野字馬場44-4",
    "amenities": "店内に独立したおむつ替えコーナーを完備しています。"
  },
  {
    "name": "日産プリンス岩手販売 二戸店",
    "category": "nursing","lat": 39.705073,
    "lng": 141.126371,
    "address": "二戸市金田一字上田面34-1",
    "amenities": "おむつ替えが可能で、ベビーカーのまま入店もスムーズです。"
  },
  {
    "name": "ＨＯＷ 県立二戸病院店",
    "category": "shopping","lat": 39.705073,
    "lng": 141.126371,
    "address": "二戸市堀野字大川原毛38-2",
    "amenities": "調乳用のお湯の提供があり、ベビーカーでの入店も歓迎しています。"
  },
  {
    "name": "ホームセンターかんぶん 二戸店",
    "category": "shopping","lat": 39.705073,
    "lng": 141.126371,
    "address": "二戸市堀野字長地75番地4",
    "amenities": "授乳スペースとおむつ替えコーナーを設置。ベビーカー入店も可能です。"
  },
  {
    "name": "丸大サクラヰ薬局 ハッピードラッグ二戸店",
    "category": "shopping","lat": 39.705073,
    "lng": 141.126371,
    "address": "二戸市福岡字長峰50番7号",
    "amenities": "広い通路で、ベビーカーのまま快適にお買い物ができます。"
  },
  {
    "name": "どんぐり堂",
    "category": "shopping","lat": 39.705073,
    "lng": 141.126371,
    "address": "二戸市福岡字上町6",
    "amenities": "ミルク用のお湯を提供しており、ベビーカーでの入店も可能です。"
  },
  {
    "name": "ギフト北岡",
    "category": "shopping","lat": 39.705073,
    "lng": 141.126371,
    "address": "二戸市堀野字大谷地31番地2",
    "amenities": "ベビーカーのままスムーズに入店いただける設計になっています。"
  },
  {
    "name": "スーパーしんゆう",
    "category": "shopping","lat": 39.705073,
    "lng": 141.126371,
    "address": "二戸市浄法寺町樋田45番地3",
    "amenities": "ベビーカーでの入店に対応しており、お子様連れでも利用しやすい環境です。"
  },
  {
    "name": "ドラッグふじや",
    "category": "shopping","lat": 39.705073,
    "lng": 141.126371,
    "address": "二戸市浄法寺町下前田27-5",
    "amenities": "ミルク用のお湯を提供しており、ベビーカーのまま入店いただけます。"
  },
  {
    "name": "まるしょうストア 金田一店",
    "category": "shopping","lat": 39.705073,
    "lng": 141.126371,
    "address": "二戸市金田一字馬場47-5",
    "amenities": "ベビーカーのまま入店してショッピングが楽しめます。"
  },
  {
    "name": "ビューティーサロンスタイル",
    "category": "nursing","lat": 39.705073,
    "lng": 141.126371,
    "address": "二戸市福岡字上町9",
    "amenities": "授乳スペース、おむつ替えコーナー、調乳用お湯、ベビーカー対応のすべてが揃う手厚い美容室です。"
  },
  {
    "name": "スーパーアークス 二戸店",
    "category": "shopping","lat": 39.705073,
    "lng": 141.126371,
    "address": "二戸市米沢字荒谷25番地",
    "amenities": "粉ミルク用のお湯を提供しており、ベビーカーのまま買い物が可能です。"
  },
  {
    "name": "おふくろ亭 落久保店",
    "category": "shopping","lat": 39.705073,
    "lng": 141.126371,
    "address": "二戸市福岡字落久保12",
    "amenities": "授乳スペース、調乳用のお湯、ベビーカーでの入店に対応しています。"
  },
  {
    "name": "岩手三菱自動車販売 二戸バイパス店",
    "category": "nursing","lat": 39.705073,
    "lng": 141.126371,
    "address": "二戸市米沢字荒谷28番1号",
    "amenities": "調乳用のお湯を提供しており、ベビーカーのまま入店いただけます。"
  },
  {
    "name": "Honda Cars 岩手中央二戸西店",
    "category": "nursing","lat": 39.705073,
    "lng": 141.126371,
    "address": "二戸市浄法寺町樋田37番地3",
    "amenities": "調乳用のお湯を提供しており、ベビーカーのまま入店いただけます。"
  },
  {
    "name": "ユニバース 西根店",
    "category": "shopping","lat": 39.705073,
    "lng": 141.126371,
    "address": "八幡平市平舘９-１２６",
    "amenities": "おむつ替えコーナーを完備しています。"
  },
  {
    "name": "岩手トヨペット 西根支店",
    "category": "nursing","lat": 39.705073,
    "lng": 141.126371,
    "address": "八幡平市大更第１９地割７－１",
    "amenities": "ミルク用のお湯を提供しており、ベビーカーのまま入店可能です。"
  },
  {
    "name": "薬王堂 岩手西根店",
    "category": "shopping","lat": 39.705073,
    "lng": 141.126371,
    "address": "八幡平市大更第35地割32－2",
    "amenities": "おむつ替えが可能で、ベビーカーでの入店も歓迎しています。"
  },
  {
    "name": "薬王堂 八幡平店",
    "category": "shopping","lat": 39.705073,
    "lng": 141.126371,
    "address": "八幡平市大更第１８地割８８－１４",
    "amenities": "おむつ替えコーナーがあり、ベビーカーのままお買い物ができます。"
  },
  {
    "name": "ネッツトヨタ岩手 西根店",
    "category": "nursing","lat": 39.705073,
    "lng": 141.126371,
    "address": "八幡平市大更第１８地割３０３－１",
    "amenities": "おむつ替えコーナー完備。ミルク用のお湯も提供しており、ベビーカー入店も可能です。"
  },
  {
    "name": "みやの",
    "category": "shopping","lat": 39.705073,
    "lng": 141.126371,
    "address": "八幡平市平舘９－１３７－１",
    "amenities": "授乳室、おむつ替えコーナー、調乳用お湯、ベビーカー入店、優先席のすべてが揃う親子に非常に手厚い店舗です。"
  },
  {
    "name": "羽沢製菓",
    "category": "shopping","lat": 39.705073,
    "lng": 141.126371,
    "address": "八幡平市清水１４１番地５",
    "amenities": "ベビーカーのまま入店でき、お子様連れ優先席も用意されています。"
  },
  {
    "name": "仙台菓子店",
    "category": "shopping","lat": 39.705073,
    "lng": 141.126371,
    "address": "八幡平市荒屋新町８９－２",
    "amenities": "ベビーカーのまま入店してゆっくりお買い物が楽しめます。"
  },
  {
    "name": "産直大地",
    "category": "shopping","lat": 39.705073,
    "lng": 141.126371,
    "address": "八幡平市平舘15-124",
    "amenities": "ベビーカーのまま入店して買い物が楽しめます。"
  },
  {
    "name": "いわて生活共同組合 Belf八幡平",
    "category": "shopping","lat": 39.705073,
    "lng": 141.126371,
    "address": "八幡平市大更第18地割88-14",
    "amenities": "授乳スペースとおむつ替えコーナーがあり、ベビーカーでの入店も可能です。"
  },
  {
    "name": "アムール小笠原",
    "category": "nursing","lat": 39.705073,
    "lng": 141.126371,
    "address": "九戸村伊保内11-57",
    "amenities": "ベビーカーのままスムーズに入店いただけます。"
  },
  {
    "name": "薬王堂 岩手九戸店",
    "category": "shopping","lat": 39.705073,
    "lng": 141.126371,
    "address": "九戸村長興寺第3地割９－２",
    "amenities": "おむつ替えコーナーを完備。ベビーカー入店も可能です。"
  },
  {
    "name": "街の駅「まさざね館」",
    "category": "roadside_station","lat": 39.705073,
    "lng": 141.126371,
    "address": "九戸村大字伊保内11-47-1",
    "amenities": "ミルク用のお湯を提供しており、ベビーカー入店や優先席の利用も可能です。"
  },
  {
    "name": "ユニバース 種市店",
    "category": "shopping","lat": 39.705073,
    "lng": 141.126371,
    "address": "洋野町種市第23地割113-20",
    "amenities": "おむつ替えが可能で、ベビーカーのまま入店いただけます。"
  },
  {
    "name": "薬王堂 岩手洋野店",
    "category": "shopping","lat": 39.705073,
    "lng": 141.126371,
    "address": "洋野町種市第23地割９１－８",
    "amenities": "おむつ替えコーナーがあり、ベビーカーでの来店に対応しています。"
  },
  {
    "name": "おおのキャンパス グリーンヒルおおの",
    "category": "shopping","lat": 39.705073,
    "lng": 141.126371,
    "address": "洋野町大野58-12-30",
    "amenities": "授乳スペース、おむつ替えコーナー、ミルク用お湯の提供があり、ベビーカー入店も歓迎しています。"
  },
  {
    "name": "岩手トヨペット 二戸支店",
    "category": "nursing","lat": 39.705073,
    "lng": 141.126371,
    "address": "一戸町鳥越字野月内館６５－１",
    "amenities": "粉ミルク用のお湯を提供しており、ベビーカーのまま入店いただけます。"
  },
  {
    "name": "一戸スーパーマーケット",
    "category": "shopping","lat": 39.705073,
    "lng": 141.126371,
    "address": "一戸町高善寺字野田１０７－２６",
    "amenities": "授乳、おむつ替え、調乳用お湯のケア設備が整っています。"
  },
  {
    "name": "薬王堂 岩手一戸店",
    "category": "shopping","lat": 39.705073,
    "lng": 141.126371,
    "address": "一戸町一戸字砂森57-1",
    "amenities": "おむつ替えコーナーがあり、ベビーカーのまま買い物ができます。"
  },
  {
    "name": "いなりスポーツ 居也商店",
    "category": "shopping","lat": 39.705073,
    "lng": 141.126371,
    "address": "一戸町中山字大塚113番4",
    "amenities": "調乳用のお湯を提供しており、ベビーカーでの入店も可能です。"
  },
  {
    "name": "上山本店",
    "category": "shopping","lat": 39.705073,
    "lng": 141.126371,
    "address": "一戸町中山字大塚77の1",
    "amenities": "粉ミルク用のお湯の提供があり、ベビーカーのまま入店いただけます。"
  },
  {
    "name": "サラダボウル・こずや",
    "category": "shopping","lat": 39.705073,
    "lng": 141.126371,
    "address": "一戸町小鳥谷字道地43-1",
    "amenities": "ミルク用のお湯を提供しており、ベビーカーでの入店が可能です。"
  },
  {
    "name": "フラワーショップ のぞみ",
    "category": "shopping","lat": 39.705073,
    "lng": 141.126371,
    "address": "一戸町字砂森60-1 県立一戸病院内",
    "amenities": "ベビーカーのままスムーズに入店いただけます。"
  },
  {
    "name": "スズキ自販岩手 アリーナ二戸南",
    "category": "nursing","lat": 39.705073,
    "lng": 141.126371,
    "address": "一戸町越田橋28",
    "amenities": "ベビーカーのまま入店可能なバリアフリー設計です。"
  },
  {
    "name": "ジョイス 一戸店",
    "category": "shopping","lat": 39.705073,
    "lng": 141.126371,
    "address": "一戸町一戸字砂森123番地1",
    "amenities": "調乳用のお湯を提供しており、ベビーカーのままお買い物が楽しめます。"
  },
  {
    "name": "ローソン 盛岡市内各店",
    "category": "convenience",
    "lat": 39.702399,
    "lng": 141.137148,
    "address": "盛岡市盛岡駅前通９－１７",
    "amenities": "ミルク用のお湯を提供しており、ベビーカーでの入店も歓迎しています。"
  },
    {
    "name": "ニューヤマザキデイリーストア好摩駅前店",
    "category": "convenience",
    "lat": 39.867201,
    "lng": 141.1782846,
    "address": "盛岡市好摩字夏間木83-47",
    "amenities": "調乳用のお湯を提供しており、ベビーカーでの入店に対応しています。"
  },
  {
    "name": "ファミリーマート 盛岡市内各店",
    "lat": 39.702726,
    "lng": 141.135748,
    "category": "convenience",
    "address": "盛岡市盛岡駅前通１－４４　盛岡フェザンＢＦ　めんこい横丁",
    "amenities": "粉ミルク用のお湯を提供しており、ベビーカーのままスムーズに入店いただけます。"
  },
  {
    "name": "セブン-イレブン 盛岡市内各店",
    "lat": 39.7021090,
    "lng": 141.1389585,
    "category": "convenience",
    "address": "盛岡市盛岡駅前通7-15",
    "amenities": "粉ミルク用のお湯を提供しており、ベビーカーのまま入店可能です。"
  },
  {
    "name": "ローソン 久慈市内各店",
    "lat": 40.1904374,
    "lng": 141.7667101,
    "category": "convenience",
    "address": "久慈市二十八日町２丁目１８",
    "amenities": "粉ミルク用のお湯を提供しており、ベビーカー入店も可能です。"
  },
  {
    "name": "ファミリーマート 久慈市内各店",
    "lat": 40.1887421,
    "lng": 141.7812632,
    "category": "convenience",
    "address": "久慈市長内町第27地割29‐1",
    "amenities": "粉ミルク用のお湯を提供しており、ベビーカーのままスムーズに入店いただけます。"
  },
   {
    "name": "ローソン 二戸市内各店",
    "lat": 40.2942243,
    "lng": 141.2987065,
    "category": "convenience",
    "address": "二戸市堀野長地７３ー１",
    "amenities": "粉ミルク用のお湯を提供しており、ベビーカーのままスムーズに入店いただけます。"
  },
    {
    "name": "セブン-イレブン 二戸市内各店",
    "lat": 40.2623676,
    "lng": 141.2915611,
    "category": "convenience",
    "address": "二戸市石切所字杉ノ沢４-１",
    "amenities": "粉ミルク用のお湯を提供しており、ベビーカーのままスムーズに入店いただけます。"
  },
  {
    "name": "ファミリーマート 二戸米沢店",
    "lat": 40.28179537,
    "lng": 141.2941754,
    "category": "convenience",
    "address": "二戸市米沢字下村１３６番１",
    "amenities": "ミルク用のお湯を提供しており、ベビーカーのまま入店可能です。"
  },
  {
    "name": "ローソン 安比高原店",
    "lat": 40.01502719,
    "lng": 140.9918098,
    "category": "convenience",
    "address": "八幡平市安比高原１８２－２２",
    "amenities": "レジャーの際の立ち寄りに便利。粉ミルク用のお湯提供と、ベビーカー入店に対応しています。"
  },
  {
    "name": "ローソン 軽米上舘店",
    "category": "convenience",
    "lat": 40.31688327,
    "lng": 141.4829401,
    "address": "軽米町大字上舘第１５地割字岩崎４３‐２",
    "amenities": "調乳用のお湯を提供しており、ベビーカーのままスムーズに入店いただけます。"
  },
  {
    "name": "ローソン 岩手軽米店",
    "category": "convenience",
    "lat": 40.3216113,
    "lng": 141.3823148,
    "address": "軽米町大字晴山第２２地割字皀角子久保３８－４",
    "amenities": "粉ミルク用のお湯を提供しており、ベビーカーのまま入店可能です。"
  },
  {
    "name": "ローソン 岩手野田店",
    "category": "convenience",
    "lat": 40.1171126,
    "lng": 141.812702,
    "address": "野田村大字野田２７字白井林２‐１",
    "amenities": "粉ミルク用のお湯を提供しており、ベビーカーのままスムーズに入店いただけます。"
  },
  {
    "name": "ローソン 九戸店",
    "category": "convenience",
    "lat": 40.2030524,
    "lng": 141.425077,
    "address": "九戸村大字伊保内第１２地割４９－２",
    "amenities": "調乳用のお湯の提供があり、ベビーカーのまま入店いただけます。"
  },
  {
    "name": "ファミリーマート 洋野種市店",
    "category": "convenience",
    "lat": 40.4119922,
    "lng": 141.7082519,
    "address": "洋野町種市第２４地割１５６－１",
    "amenities": "ミルク用のお湯を提供しており、ベビーカーでの入店に対応しています。"
  },
  {
    "name": "ファミリーマート 一戸砂森店",
    "category": "convenience",
    "lat": 40.2093003261,
    "lng": 141.303633,
    "address": "一戸町一戸字砂森１０２番地５",
    "amenities": "粉ミルク用のお湯の提供があり、ベビーカーのまま入店いただけます。"
  },
  {
    "name": "ファミリーマート 一戸奥中山店",
    "category": "convenience",
    "lat": 40.06635970,
    "lng": 141.2311100,
    "address": "一戸町中山字大塚７２－１",
    "amenities": "調乳用のお湯を提供しており、ベビーカーでの来店が可能です。"
  },
  {
    "name": "ローソン 一戸インター店",
    "category": "convenience",
    "lat": 40.22697005,
    "lng": 141.29183879,
    "address": "一戸町一戸字越田橋３４‐１",
    "amenities": "粉ミルク用のお湯を提供しており、ベビーカーのままスムーズに入店いただけます。"
  },
  {
    "name": "ローソン 一戸小鳥谷店",
    "category": "convenience",
    "lat": 40.17983915,
    "lng": 141.3067479,
    "address": "一戸町岩舘字川又４５‐７",
    "amenities": "ミルク用のお湯を提供しており、ベビーカーのまま入店が可能です。"
  },
  {
    "name": "カフェ フルール ド リズ",
    "category": "restaurant",
    "lat": 39.7065716,
    "lng": 141.1376006,
    "address": "盛岡市材木町７－４０",
    "amenities": "お子様連れの方が優先的に利用できる席が用意されています。"
  },
  {
    "name": "盛岡月が丘食堂",
    "category": "restaurant",
    "lat": 39.7390785,
    "lng": 141.108681,
    "address": "盛岡市月が丘３丁目４０－１８",
    "amenities": "粉ミルク用のお湯の提供があり、ベビーカーでの来店に対応しています。"
  },
  {
    "name": "お気楽イタリアン ヴィラ玉山",
    "category": "restaurant",
    "lat": 39.834535,
    "lng": 141.1587427,
    "address": "盛岡市下田字船綱44-16",
    "amenities": "ミルク用のお湯を提供しており、ベビーカーのまま入店可能です。"
  },
  {
    "name": "ウサギ ボタニカ",
    "category": "restaurant",
    "lat": 39.7010275,
    "lng": 141.1566985,
    "address": "盛岡市中の橋通1-3-15",
    "amenities": "ベビーカーのままスムーズに入店いただける設計になっています。"
  },
  {
    "name": "味の小てんぐ・てんぐの里106",
    "category": "restaurant",
    "lat": 39.674848,
    "lng": 141.2098061,
    "address": "盛岡市川目第6地割85-2",
    "amenities": "調乳用のお湯を提供しており、ベビーカーのまま入店いただけます。"
  },
  {
    "name": "CHATONS",
    "category": "restaurant",
    "lat": 39.6998776,
    "lng": 141.1561108,
    "address": "盛岡市中ノ野橋通１丁目6-8　2F",
    "amenities": "バリアフリーに対応しており、ベビーカーでの来店が可能です。"
  },
  {
    "name": "チーズケーキハウスチロル山岸店",
    "category": "restaurant",
    "lat": 39.72963253,
    "lng": 141.16544489,
    "address": "盛岡市山岸6-34-15",
    "amenities": "ミルク用のお湯の提供があり、ベビーカー入店や優先席の利用も可能です。"
  },
  {
    "name": "モンタン",
    "category": "restaurant",
    "lat": 39.7022026,
    "lng": 141.1514540,
    "address": "盛岡市内丸6-2",
    "amenities": "調乳用のお湯を提供しており、ベビーカーのまま入店いただけます。"
  },
  {
    "name": "かっぱ寿司盛岡北山店",
    "category": "restaurant",
    "lat": 39.7175698,
    "lng": 141.1455251,
    "address": "盛岡市北山2-27-5",
    "amenities": "粉ミルク用のお湯を提供しており、小さなお子様連れでの食事をサポートしています。"
  },
  {
    "name": "かっぱ寿司盛岡南店",
    "category": "restaurant",
    "lat": 39.6845832,
    "lng": 141.1361205,
    "address": "盛岡市向中野2-20-30",
    "amenities": "調乳用のお湯の提供があり、家族でのお寿司を安心して楽しめます。"
  },
  {
    "name": "ステーキ宮 盛岡南店",
    "category": "restaurant",
    "lat": 39.67271637,
    "lng": 141.13540543,
    "address": "盛岡市向中野7丁目17番40号",
    "amenities": "粉ミルク用のお湯の提供やベビーカーでの入店など、ファミリー向けのサービスに対応しています。"
  },
  {
    "name": "カラオケ合衆国 盛岡店",
    "category": "restaurant",
    "lat": 39.68535036,
    "lng": 141.1310366,
    "address": "盛岡市本宮4-34-10",
    "amenities": "お子様連れでの利用を歓迎しており、ベビーカーでの入店も可能です。"
  },
  {
    "name": "ユートランド 姫神",
    "category": "restaurant",
    "lat": 39.8595876,
    "lng": 141.113012476,
    "address": "盛岡市下田字生出893番地11",
    "amenities": "おむつ替えコーナーとミルク用お湯の提供があり、親子での休憩に便利です。"
  },
  {
    "name": "焼肉冷麺やまなか家 盛南店",
    "category": "restaurant",
    "lat": 39.6841295,
    "lng": 141.1359668,
    "address": "盛岡市向中野2丁目22-48",
    "amenities": "調乳用のお湯を提供しています。また、お子様向けの設備配慮も行っています。"
  },
  {
    "name": "焼肉冷麺やまなか家 上田バイパス店",
    "category": "restaurant",
    "lat": 39.72332842,
    "lng": 141.13469005,
    "address": "盛岡市高松２丁目13-1",
    "amenities": "粉ミルク用のお湯の提供があり、家族での食事をサポートしています。"
  },
  {
    "name": "焼肉冷麺やまなか家 盛岡大通り店",
    "category": "restaurant",
    "lat": 39.70254238,
    "lng": 141.1442237,
    "address": "盛岡市開運橋通1-36 コマツビル2F",
    "amenities": "調乳用のお湯を提供しており、中心街での食事の際に便利です。"
  },
  {
    "name": "東家本店",
    "category": "restaurant",
    "lat": 39.700569,
    "lng": 141.1565216,
    "address": "盛岡市中ノ橋通1-8-3",
    "amenities": "授乳スペースとおむつ替えコーナーがあり、ミルク用のお湯も提供しています。"
  },
  {
    "name": "東家駅前店",
    "category": "restaurant",
    "lat": 39.70190274,
    "lng": 141.1376658,
    "address": "盛岡市盛岡駅前通8-11",
    "amenities": "駅前での立ち寄りに便利。授乳・おむつ替えスペースと調乳用お湯を完備しています。"
  },
  {
    "name": "農家食堂 はるな",
    "category": "restaurant",
    "lat": 40.15390747,
    "lng": 141.7656219,
    "address": "久慈市長内町17-90",
    "amenities": "おむつ替えコーナーとミルク用お湯の提供があり、ベビーカーでの入店も可能です。"
  },
  {
    "name": "かっぱ寿司久慈店",
    "category": "restaurant",
    "lat": 40.1887905,
    "lng": 141.7863352,
    "address": "久慈市長内町34地割3-6",
    "amenities": "調乳用のお湯を提供しており、小さなお子様連れを歓迎しています。"
  },
  {
    "name": "ライフステージ三の丸ひまわり（就労継続支援B型事業所）",
    "category": "nursing",
    "lat": 40.2701911,
    "lng": 141.30092366,
    "address": "二戸市福岡字城ノ外4番地1",
    "amenities": "授乳スペース、おむつ替え、調乳用お湯、ベビーカー入店のすべてに対応しています。"
  },
  {
    "name": "自助工房 四季の里",
    "category": "restaurant",
    "lat": 40.25192589,
    "lng": 141.286185,
    "address": "二戸市石切所字荒瀬49-1",
    "amenities": "おむつ替えコーナー、調乳用お湯があり、ベビーカー入店も歓迎しています。"
  },
  {
    "name": "うどん屋 寅久",
    "category": "restaurant",
    "lat": 40.2602264,
    "lng": 141.297818,
    "address": "二戸市石切所字上野々84-2",
    "amenities": "ミルク用のお湯の提供があり、ベビーカーのままスムーズに入店いただけます。"
  },
  {
    "name": "町家の食べ処福わらし",
    "category": "restaurant",
    "lat": 40.2750829,
    "lng": 141.3003603,
    "address": "二戸市福岡字下中町7番地",
    "amenities": "調乳用のお湯を提供しており、ベビーカーでの来店に対応しています。"
  },
  {
    "name": "おふくろ亭",
    "category": "restaurant",
    "lat": 40.2716437,
    "lng": 141.301234,
    "address": "二戸市福岡字落久保12",
    "amenities": "授乳スペースとお湯の提供があり、ベビーカーでの入店も可能です。"
  },
  {
    "name": "三陸味処 三五十",
    "category": "restaurant",
    "lat": 39.46443550,
    "lng": 141.9518449,
    "address": "山田町川向町10-5",
    "amenities": "調乳用のお湯の提供があり、ベビーカーでの入店にも対応しています。"
  },
  {
    "name": "グルメハウス シンコー",
    "category": "restaurant",
    "address": "山田町川向町7-5",
    "lat": 39.46490456,
    "lng": 141.95010376,
    "amenities": "粉ミルク用のお湯を提供しており、ベビーカーのまま入店いただけます。"
  },
  {
    "name": "結カフェ",
    "category": "restaurant",
    "lat": 40.06503698,
    "lng": 141.231326,
    "address": "一戸町中山字大塚116-2",
    "amenities": "粉ミルク用のお湯の提供があり、ベビーカーでの来店に対応しています。"
  },
  {
    "name": "喫茶シェヌー",
    "category": "restaurant",
    "lat": 40.2075809,
    "lng": 141.3050151,
    "address": "一戸町字砂森60-1 県立一戸病院内",
    "amenities": "ミルク用のお湯を提供しており、ベビーカーのまま入店可能です。"
  },
  {
    "name": "トイザらス・ベビーザらス 盛岡南店",
    "category": "shopping",
    "lat": 39.68444725,
    "lng": 141.1293653,
    "address": "盛岡市本宮7-1-1 イオンモール盛岡南2F",
    "amenities": "授乳スペース、おむつ替えコーナー、ミルク用お湯の提供、ベビーカー入店など、完璧な育児支援設備が整っています。"
  },
  {
    "name": "岩鋳鉄器館",
    "category": "museum",
    "lat": 39.6711519,
    "lng": 141.1537649,
    "address": "盛岡市南仙北2丁目23-9",
    "amenities": "おむつ替えコーナーとミルク用お湯の提供があり、ベビーカー入店も歓迎しています。"
  },
  {
    "name": "盛岡市余熱利用健康増進センターゆぴあす",
    "category": "public",
    "lat": 39.76476619,
    "lng": 141.1820488,
    "address": "盛岡市上田字小鳥沢148-103",
    "amenities": "授乳スペースや調乳用お湯などのケア設備が充実しており、ベビーカーでも快適に利用できます。"
  },
  {
    "name": "イオン盛岡南店",
    "category": "shopping",
    "lat": 39.68325028,
    "lng": 141.1273735,
    "address": "盛岡市本宮7丁目1番1号",
    "amenities": "授乳室やおむつ替えコーナーはもちろん、お湯の提供やベビーカー入店、優先席まで揃う充実の設備です。"
  },
  {
    "name": "もりおか歴史文化館",
    "category": "museum",
    "lat": 39.70105299,
    "lng": 141.1526134,
    "address": "盛岡市内丸1-50",
    "amenities": "授乳や調乳用お湯、おむつ替えスペースを完備し、親子での歴史探訪をサポートしています。"
  },
  {
    "name": "盛岡市子ども科学館",
    "category": "playground",
    "lat": 39.6940015,
    "lng": 141.12981976,
    "address": "盛岡市本宮字蛇屋敷13-1",
    "amenities": "授乳スペースとおむつ替えコーナーが整備されています。"
  },
  {
    "name": "ふるさとの館",
    "category": "hotel",
    "lat": 40.20260081,
    "lng": 141.41087081,
    "address": "九戸村大字伊保内第１８地割４１－１３６",
    "amenities": "おむつ替えコーナーと調乳用お湯があり、ベビーカー入店も歓迎しています。"
  },
  {
    "name": "ホテル紫苑",
    "category": "hotel",
    "lat": 39.6791911,
    "lng": 141.0255465,
    "address": "盛岡市繋字湯ノ舘７４-２",
    "amenities": "授乳室、おむつ替え、ミルク用お湯、ベビーカー対応が揃った、親子連れに非常に優しい宿です。"
  },
  {
    "name": "ホテル小田島",
    "category": "hotel",
    "lat": 39.7049689,
    "lng": 141.14765542,
    "address": "盛岡市中央通１－１２－２４",
    "amenities": "調乳用のお湯を提供しており、ベビーカーでの宿泊・利用も可能です。"
  },
  {
    "name": "愛真館",
    "category": "hotel",
    "lat": 39.6730073,
    "lng": 141.0218902,
    "address": "盛岡市繋字塗沢40-4",
    "amenities": "授乳・おむつ替え設備を整え、調乳用お湯の提供やベビーカー移動にも対応しています。"
  },
  {
    "name": "つなぎ温泉四季亭",
    "category": "hotel",
    "lat": 39.67301926,
    "lng": 141.02376236,
    "address": "盛岡市繋字湯の館137",
    "amenities": "お散歩や外出途中の休憩・トイレ利用を歓迎している、地域に開かれた温泉宿です。"
  },
  {
    "name": "エスポワールいわて",
    "category": "hotel",
    "lat": 39.7027822,
    "lng": 141.149748,
    "address": "盛岡市中央通り１丁目１番38号",
    "amenities": "授乳スペース、おむつ替え、ミルク用お湯、ベビーカー対応のすべてが揃う安心の施設です。"
  },
  {
    "name": "二戸パークホテル",
    "category": "hotel",
    "lat": 40.2647705,
    "lng": 141.2948432,
    "address": "二戸市福岡字八幡下69番地の1",
    "amenities": "おむつ替えが可能で、調乳用お湯の提供やベビーカーでの入店・宿泊も可能です。"
  },
  {
    "name": "天台の湯",
    "category": "hotel",
    "lat": 40.1982575,
    "lng": 141.0906597,
    "address": "二戸市浄法寺野黒沢133番地１",
    "amenities": "おむつ替えコーナーと調乳用お湯があり、親子でのリフレッシュに適しています。"
  },
  {
    "name": "カダルテラス金田一",
    "category": "hotel",
    "lat": 40.32062331,
    "lng": 141.3190687,
    "address": "二戸市金田一字湯田41",
    "amenities": "ミルク用お湯の提供のほか、浴室にはベビーバスも用意されており、赤ちゃんの温泉デビューを応援しています。"
  },
  {
    "name": "龍泉洞温泉ホテル",
    "category": "hotel",
    "lat": 39.8551888,
    "lng": 141.8011668,
    "address": "岩泉町岩泉字府金48",
    "amenities": "おむつ替え、調乳用お湯、ベビーカー対応、優先席に加え、ベビーバスやベビーラックの無料貸出も行っている非常に手厚い宿です。"
  },
  {
    "name": "北山崎（有）白花しゃくなげ荘",
    "category": "hotel",
    "lat": 39.9779730,
    "lng": 141.9504438,
    "address": "田野畑村北山崎129の7",
    "amenities": "授乳スペースとお湯の提供があり、ベビーカーのままスムーズに宿泊・利用いただけます。"
  },
  {
    "name": "国民宿舎 くろさき荘",
    "category": "hotel",
    "lat": 40.00538974,
    "lng": 141.9348287,
    "address": "普代村第2地割字下村84番地4",
    "amenities": "粉ミルク用のお湯を提供しており、赤ちゃんの食事準備をサポートしています。"
  },
  {
    "name": "岩手ダイハツ販売 盛岡厨川店",
    "category": "nursing",
    "lat": 39.741884,
    "lng": 141.1284252,
    "address": "盛岡市厨川１丁目20－1",
    "amenities": "おむつ替えコーナー、ミルク用お湯、ベビーカー対応、優先席を完備しています。"
  },
  {
    "name": "岩手ダイハツ販売 盛岡青山店",
    "category": "nursing",
    "lat": 39.7329294,
    "lng": 141.1171690,
    "address": "盛岡市青山4丁目48-1",
    "amenities": "おむつ替え設備やミルク用お湯があり、ベビーカーでの入店や優先席の利用も可能です。"
  },
  {
    "name": "岩手ダイハツ販売 盛岡インター店",
    "category": "nursing",
    "lat": 39.7097128,
    "lng": 141.10805480,
    "address": "盛岡市前潟1-1-8",
    "amenities": "おむつ替えが可能で調乳用お湯も提供。ベビーカー入店や優先席もあり、家族での来店に対応しています。"
  },
  {
    "name": "岩手ダイハツ販売 盛岡北飯岡店",
    "category": "nursing",
    "lat": 39.6752602,
    "lng": 141.1346703,
    "address": "盛岡市北飯岡2丁目9-10",
    "amenities": "おむつ替えコーナー、ミルク用お湯、ベビーカー対応、優先席が揃う親子に優しい店舗です。"
  },
  {
    "name": "岩手ダイハツ販売 盛岡仙北店",
    "category": "nursing",
    "lat": 39.6796101,
    "lng": 141.1523226,
    "address": "盛岡市仙北3丁目14-46",
    "amenities": "授乳スペース、おむつ替え、ミルク用お湯、ベビーカー対応、優先席と完璧な育児支援設備が整っています。"
  },
  {
    "name": "東北マツダ都南店",
    "category": "nursing",
    "lat": 39.6690136,
    "lng": 141.1564990,
    "address": "盛岡市津志田町1-5-8",
    "amenities": "授乳室とおむつ替えコーナーを設置しており、調乳用のお湯も提供しています。"
  },
  {
    "name": "岩手ダイハツ販売 二戸店",
    "category": "nursing",
    "lat": 40.2988492,
    "lng": 141.2972574,
    "address": "二戸市金田一字上田面231-1",
    "amenities": "おむつ替えコーナーとミルク用お湯の提供があり、お子様連れ優先席も用意されています。"
  },
  {
    "name": "岩手三菱自動車販売 二戸バイパス店",
    "category": "nursing",
    "lat": 40.2828160,
    "lng": 141.2928724,
    "address": "二戸市米沢字荒谷28番1号",
    "amenities": "調乳用のお湯を提供しており、ベビーカーのまま入店いただけます。"
  },
  {
    "name": "丸奥自動車工業株式会社",
    "category": "nursing",
    "lat": 39.911801753,
    "lng": 141.90317500,
    "address": "田野畑村菅窪223番地75",
    "amenities": "おむつ替えコーナーを完備しており、ベビーカー入店や優先席の利用も可能です。"
  },
  {
    "name": "高常自動車工業株式会社",
    "category": "nursing",
    "lat": 40.33126360,
    "lng": 141.4555484,
    "address": "軽米町大字軽米第13地割115番地の2",
    "amenities": "店内にキッズスペースが完備されており、お子様連れでも安心して待ち時間を過ごせます。"
  },
  {
    "name": "道の駅 いわて北三陸 (久慈市)",
    "category": "roadside_station",
    "lat": 40.2255238,
    "lng": 141.781902,
"address": "久慈市夏井町鳥谷第７地割3−番地 ２",
    "amenities": "授乳室、おむつ交換スペース、粉ミルク用のお湯の提供、プレイルーム・スペース、おむつ用ゴミ箱、ベビーカーのまま入店可、店内全面禁煙",
    "detail": "2023年4月にオープンした最新の道の駅です。高さ5mの大型遊具があるキッズコーナーを併設しており、おむつ替え台4台、個室授乳室3室、ミルク用シンク2台など、都市型商業施設を凌駕する手厚い設備が整っています。"
  },
  {
    "name": "道の駅 くじ やませ土風館 (久慈市)",
    "category": "roadside_station",
    "lat": 40.18979,
    "lng": 141.7651613,
    "address": "久慈市中町２丁目５−１",
    "amenities": "授乳室、おむつ交換スペース、粉ミルク用のお湯の提供、ベビーカーのまま入店可、店内全面禁煙",
    "detail": "久慈市中心部の観光・交流拠点です。「風の館」1階に多目的トイレ（おむつ替えシート）があり、通路端にはカーテン仕切りの簡易授乳スペースが設置されています。長距離移動の合間のケア拠点として利用可能です。"
  },
  {
    "name": "道の駅 もりおか渋民 (盛岡市)",
    "category": "roadside_station",
    "lat": 39.8456689,
    "lng": 141.1734986,
    "address": "盛岡市渋民渋民80番地42",
    "amenities": "授乳室、おむつ交換スペース、粉ミルク用のお湯の提供、店内全面禁煙",
    "detail": "国道4号線沿いの主要休憩拠点です。24時間営業しており、授乳室やおむつ替え台を完備。ミルク用のお湯の提供（9時〜18時）も行っており、乳幼児連れのドライブにおいて「命綱」のような役割を果たしています。"
  },
  {
    "name": "二戸市ふるさと振興 なにゃーと物産センター (二戸市)",
    "category": "roadside_station",
    "lat": 40.2610775,
    "lng": 141.285894,
    "address": "二戸市石切所森合６８−５４−７ 1F カシオペアメッセなにゃーと",
    "amenities": "授乳室、おむつ交換スペース、粉ミルク用のお湯の提供、プレイルーム・スペース、ベビーカーのまま入店可、店内全面禁煙",
    "detail": "二戸駅に隣接する広域拠点です。授乳やおむつ替えが可能なスペースが一体化されており、3階のパーゴラデッキにはアウトドア気分で遊べるプレイスペースも整備されています。新幹線利用時や地域散策時のケアに最適です。"
  },
  {
    "name": "カクヒログループスーパーアリーナ (青森市総合体育館)",
    "category": "playground",
    "lat": 40.8140155,
    "lng": 140.745894,
    "address": "青森市浦町橋本３３５−１７",
    "amenities": "授乳室、おむつ交換スペース、プレイルーム・スペース、粉ミルク用のお湯の提供、手洗い場、店内全面禁煙",
    "detail": "2024年7月にオープンした最新の公共スポーツ施設です。約760㎡の広大な「キッズルーム」にはネット遊具や滑り台、クライミングウォールが完備されています。隣接して最新の授乳室や着替え室、シャワールームも備わっており、運動とケアが一体化されています。"
  },
  {
    "name": "青森市スポーツ公園 (わくわく広場)",
    "category": "playground",
    "lat": 40.7855674,
    "lng": 140.773378,
    "address": "青森市大矢沢野田２７−３",
    "amenities": "おむつ交換スペース、プレイルーム・スペース、店内全面禁煙",
    "detail": "広大な敷地に大型遊具や水流エリア、芝生広場があります。屋外ですが清潔なトイレが2箇所あり、車椅子用トイレ内でおむつ替えが可能です。ピクニックや歩き始めの子供の運動に最適です。"
  },
  {
    "name": "浄法寺運動公園 (二戸市)",
    "category": "playground",
    "lat": 40.1900635,
    "lng": 141.153806,
    "address": "二戸市浄法寺町小池８５番地２",
    "amenities": "プレイルーム・スペース、店内全面禁煙",
    "detail": "園内に「幼児広場」があり、アスレチックなどの遊具で体いっぱいに動かして遊ぶことができます。二戸市内の赤ちゃんと安心していけるお出かけスポットとして推奨されています。"
  },
  {
    "name": "大石運動公園 (六ヶ所村)",
    "category": "playground",
    "lat": 40.9814584,
    "lng": 141.337635,
    "address": "六ケ所村尾駮野附５２１−１",
    "amenities": "授乳室、おむつ交換スペース、プレイルーム・スペース、店内全面禁煙",
    "detail": "トイレ内におむつ替え台があり、駐車場も広いため、お弁当持参での散歩や運動に適しています。"
  },
  {
    "name": "モヤヒルズ (青森市)",
    "category": "playground",
    "lat": 40.7366689,
    "lng": 140.794086,
    "address": "青森市雲谷梨野木６３",
    "amenities": "授乳室、おむつ交換スペース、プレイルーム・スペース、粉ミルク用のお湯の提供、店内全面禁煙",
    "detail": "冬はスキー場、夏はヒルズサンダーやプールが楽しめるレジャー拠点です。キッズルームで遊ぶ際はフロントに申し出ることができ、授乳やおむつ替えの環境も整っています。"
  },
  {
    "name": "子育て支援センター あそびの広場 (盛岡バスセンター2階)",
    "category": "playground",
    "lat": 39.6985,
    "lng": 141.1645,
    "address": "盛岡市中ノ橋通１丁目９−２２",
    "amenities": "授乳室、おむつ交換スペース、プレイルーム・スペース、ベビーカー置き場、店内全面禁煙",
    "detail": "盛岡バスセンターの2階にあり、予約なし・無料で利用できる綺麗な屋内遊び場です。おむつ替えシートや個室の授乳室も完備されており、バスの待ち時間や街中へのお出かけの際に大変便利です。"
  },
  {
    "name": "パルクアベニュー・カワトク",
    "category": "shopping",
    "lat": 39.700909,
    "lng": 141.146917,
    "address": "盛岡市菜園１丁目１０−１",
    "amenities": "授乳室、おむつ交換スペース、ベビーカーの貸し出し、粉ミルク用のお湯の提供、店内全面禁煙",
    "detail": "菜園にある百貨店です。ベビー休憩室が整備されており、個室授乳室やおむつ替えベッドのほか、調乳用のお湯も用意されています。お買い物中に安心して立ち寄れるスポットです。"
  }
]